,id,name,neighbourhood_cleansed,latitude,longitude,property_type,accommodates,beds,price,number_of_reviews,review_scores_rating,geometry,restaurant,nightclub,suppermarket,park,trainstation,busstop,bicycle_rental,city_center,Wijkcode,Wijk,culture_to,public_gre,Safety_ind
0,2763037,Beautiful Canal Apartment,Centrum-West,52.37514,4.88916,Private room in rental unit,3,2.0,159.0,344,4.79,POINT (121085.04982094589 487590.6714440745),54.81365222460319,358.34299761064705,132.09853481238562,747.6798938368007,842.8668217029906,272.4984953511369,99.7395965591554,311.01259818140727,AC,Grachtengordel-West,19.0,0.0,86.0
1,2977065,Beautiful & light Apt on canal,Centrum-West,52.37615,4.89001,Entire rental unit,2,1.0,800.0,64,4.95,POINT (121143.70196670727 487702.6497363887),83.61388733677377,372.3446226228792,220.21665259364772,765.5322881437933,759.0012385291872,204.39767751319656,119.33419649065335,365.6380584572192,AC,Grachtengordel-West,19.0,0.0,86.0
2,4035170,White Houseboat Prinsengracht,Centrum-West,52.3778,4.88626,Boat,4,2.0,240.0,78,4.92,POINT (120889.61875115852 487887.9923804087),23.53406169081628,681.2166542202677,142.4415054703615,486.1278778426061,982.7786920472544,443.7366215486858,411.0138775336167,662.1564937115224,AC,Grachtengordel-West,19.0,0.0,86.0
3,4721743,City Centre Room with Bathroom w.Tub. Roof Terrace,Centrum-West,52.37597,4.8843,Private room in rental unit,2,1.0,135.0,550,4.86,POINT (120754.74665254963 487685.3052757748),28.641760811089025,623.64059798185,218.83348331872608,408.1149443183775,1145.9063468085326,213.9552194859852,168.97113281457405,636.3676434223768,AC,Grachtengordel-West,19.0,0.0,86.0
4,5617321,Gold Alley Apartment,Centrum-West,52.37377,4.88827,Private room in rental unit,2,1.0,157.0,466,4.87,POINT (121023.39540246708 487438.65791910683),24.837785952770933,259.19412620830104,169.272452230869,765.4076420184329,900.9860586603646,269.2657901838063,193.536621333169,294.9448725622044,AC,Grachtengordel-West,19.0,0.0,86.0
5,8879722,Cosy studio on the Houseboat Canal view,Centrum-West,52.37786,4.8863,Private room in houseboat,4,2.0,170.0,73,4.88,POINT (120892.38855006255 487894.64934133226),25.14310498951773,681.9490380745151,141.60678566129053,488.8016373644358,979.2636011777782,450.919946231823,418.16982822964064,665.5463218738041,AC,Grachtengordel-West,19.0,0.0,86.0
6,10522903,"Canal LOFT, great LOCATION",Centrum-West,52.37412,4.88836,Entire loft,4,2.0,140.0,103,4.58,POINT (121029.7922400116 487477.557797764),37.57413564149872,284.43469161484,138.3223065823396,749.717137983429,907.7725821338151,274.65340678212624,167.29741517218122,299.2784468766312,AC,Grachtengordel-West,19.0,0.0,86.0
7,13781229,Penthouse Apartment on Canal,Centrum-West,52.37639,4.88674,Entire rental unit,2,1.0,280.0,14,5.0,POINT (120921.2192105194 487730.8855671831),111.74957189897388,555.5545231285882,141.89988095638054,544.0273393525108,975.0641096634118,313.3131430385937,308.6753833599167,526.5159416280336,AC,Grachtengordel-West,19.0,0.0,86.0
8,18164648,Amazing 85m2 canal apartment in heart of city!,Centrum-West,52.37692,4.88733,Entire rental unit,2,1.0,386.0,21,4.9,POINT (120961.80116789465 487789.57773285976),92.0142820443888,573.6035536418425,197.1934296183203,568.6952305069907,928.7972509838588,384.6039361490721,318.76811732190095,540.3735256506527,AC,Grachtengordel-West,19.0,0.0,86.0
9,19132615,Big appt with terrace in Herengracht Canal House,Centrum-West,52.37449,4.88778,Entire rental unit,4,3.0,377.0,27,4.52,POINT (120990.57965286696 487518.9971575487),71.55955138902928,341.2517010400398,82.6416210617527,694.8126785492062,955.179312686552,241.26747127302235,190.96976804805936,351.0023531001569,AC,Grachtengordel-West,19.0,0.0,86.0
10,19734830,Canal Boat City Center,Centrum-West,52.37427,4.88327,Houseboat,2,1.0,162.0,195,4.88,POINT (120683.29435786302 487496.6453192006),36.07985374393255,574.9188356604194,62.2251090374544,473.4984417755323,1243.3523369673792,40.7848966645672,34.38603870135061,639.8239555130881,AC,Grachtengordel-West,19.0,0.0,86.0
11,20396714,Canal house with a view,Centrum-West,52.37695,4.88635,Entire home,2,1.0,400.0,8,4.86,POINT (120895.09334724139 487793.3763720791),71.28582559020813,622.715014741146,208.96739403408745,502.5731368620738,993.0127495707084,356.8141411906661,335.5197475536483,588.4894623490216,AC,Grachtengordel-West,19.0,0.0,86.0
12,20669946,Homey Apartment with Keizersgracht Canal view,Centrum-West,52.3775,4.88771,Entire rental unit,2,1.0,350.0,21,5.0,POINT (120988.1212058171 487853.9319312371),49.200054800616144,578.5197268866675,245.4326054026995,586.2040143580391,890.1386942656103,401.728693302393,336.0637896189573,575.6411744547681,AC,Grachtengordel-West,19.0,0.0,86.0
13,20735962,Lovely Studio at Keizersgracht Canal,Centrum-West,52.37602,4.8854,Entire rental unit,2,1.0,250.0,36,4.86,POINT (120829.68878809459 487690.3492006275),25.876176580168345,575.8665403896375,157.33850203462282,474.137198661832,1070.9824555673138,237.2388756709889,214.5776431501988,574.6118294392384,AC,Grachtengordel-West,19.0,0.0,86.0
14,20736260,Presidential Grandeur and Keizersgracht Canal view,Centrum-West,52.37567,4.88755,Entire rental unit,4,3.0,434.0,34,4.94,POINT (120975.82266407357 487650.3955461105),62.233917841092826,458.52029589016144,62.16776580539054,623.625115150627,933.8055752604464,287.9832893376916,223.73641500615344,432.6734380187559,AC,Grachtengordel-West,19.0,0.0,86.0
15,22300673,Single room in pretty Amsterdam canal apartment,Centrum-West,52.37618,4.8847,Private room in rental unit,1,1.0,80.0,23,5.0,POINT (120782.14634533157 487708.48157961125),30.80765757844296,621.0175427195671,206.4259588709529,423.4835617265112,1115.7918054705262,242.62479229677905,201.8876489810973,624.4630657308785,AC,Grachtengordel-West,19.0,0.0,86.0
16,22347011,"Private 5*canalview, no stairs, in VOGUE’s top 5",Centrum-West,52.37626,4.88655,Private room in bed and breakfast,3,1.0,209.0,151,4.89,POINT (120908.18150839143 487716.5107286166),92.80207389010305,550.1237364326124,131.7718056046362,536.3386628868985,989.7140729375752,294.23701800136456,289.4418695162351,526.9187110041194,AC,Grachtengordel-West,19.0,0.0,86.0
17,23815895,Amsterdam city center,Centrum-West,52.37662,4.88696,Boat,2,2.0,190.0,28,5.0,POINT (120936.37644124091 487756.37264926196),117.73058158562364,570.3799409813887,164.62818487547852,551.363019504248,957.4369862580324,342.96066108317933,314.72423883795994,533.1366256680932,AC,Grachtengordel-West,19.0,0.0,86.0
18,26558362,Appartement center-walk  central station,Centrum-West,52.37574,4.88988,Entire rental unit,2,1.0,166.0,23,4.81,POINT (121134.53670035655 487657.0926012643),97.03266696555964,367.13689356571103,192.6909775311256,769.7153676659395,777.4679801077605,211.4622268548949,105.82591160229114,330.702346891712,AC,Grachtengordel-West,19.0,0.0,86.0
19,31709131,Boutique apartment in a 17th century canalhouse,Centrum-West,52.37649,4.89043,Private room in rental unit,4,2.0,221.0,30,5.0,POINT (121172.56074182098 487740.28306801844),81.95359400583999,362.0671929005576,264.64643994893595,785.0334896179296,724.4981683280109,186.520710605562,129.8335834361587,388.1396653522904,AC,Grachtengordel-West,19.0,0.0,86.0
20,31870080,NEW! 2 Floor Canal Apartment,Centrum-West,52.37537,4.88925,Private room in bed and breakfast,4,2.0,177.0,134,4.5,POINT (121091.35425231213 487616.2198406004),80.4609561624023,380.629951714027,140.39332287820557,743.3637992924932,829.5880207054943,259.9613949785225,106.27925880242124,324.68744468661293,AC,Grachtengordel-West,19.0,0.0,86.0
21,37085081,"Luxury Loft (17th C.) Canal View, 130m2",Centrum-West,52.3762,4.8861,Entire rental unit,4,3.0,275.0,4,5.0,POINT (120877.49315697755 487710.0467302651),64.84934065692093,561.9330602004076,139.62052589820198,509.92523577195294,1020.9728823267984,273.7374040217861,262.16125513777155,546.8439907369104,AC,Grachtengordel-West,19.0,0.0,86.0
22,41967924,Geweldig luxe 200m2 loft in het centrum *****,Centrum-West,52.375789642333984,4.890134811401367,Entire townhouse,6,5.0,1250.0,16,4.75,POINT (121151.92585825233 487662.49691878684),79.15620003043502,351.7360980880639,210.8872304851653,784.606038320378,759.2960683616298,193.81111175991887,91.254900382799,326.4013215022524,AC,Grachtengordel-West,19.0,0.0,86.0
23,42658926,Luxurious bright 200sqm house in city centre!,Centrum-West,52.37633,4.89119,Entire home,6,5.0,1250.0,6,5.0,POINT (121224.18989748851 487722.1264872466),48.45589957401931,308.1723534629068,300.5737252419984,839.293406558583,676.3318965756813,131.8697866489808,95.85576329273891,355.0937886327054,AC,Grachtengordel-West,19.0,0.0,86.0
24,42801703,Luxury canal view room (self check-in possible),Centrum-West,52.37493,4.88893,Private room in bed and breakfast,2,1.0,246.0,55,5.0,POINT (121069.22720849828 487567.4138569903),26.873646526987148,342.3949465920705,118.95515950401352,742.9227568504929,865.0428750253303,294.97097865332745,109.63867759616603,307.91960908701697,AC,Grachtengordel-West,19.0,0.0,86.0
25,43306914,Luxury Canal House room historical city centre,Centrum-West,52.3747,4.88926,Private room in bed and breakfast,2,1.0,233.0,12,4.92,POINT (121091.522992944 487541.6688936458),33.55623403741403,310.1311809475401,147.61595265303202,773.8722029164815,852.5833850412682,284.8813355183366,87.62648550524095,274.58684564493564,AC,Grachtengordel-West,19.0,0.0,86.0
26,45053158,Charming Garden Cottage in the Canal Belt,Centrum-West,52.37551,4.88464,Room in boutique hotel,2,1.0,499.0,0,,POINT (120777.54374544213 487633.96365391853),50.80966215796037,571.9918430609298,180.23613740595235,452.9250206110535,1131.5447362080831,170.2638864109039,137.78661073890862,592.5916044684394,AC,Grachtengordel-West,19.0,0.0,86.0
27,45094902,Stunning Canal View Triple Room in the Canal Belt,Centrum-West,52.37642,4.88493,Room in boutique hotel,3,2.0,481.0,1,5.0,POINT (120797.99301202127 487735.0761462578),53.94490549908517,630.4797127408249,210.52512149900144,426.8446253196129,1097.191199608483,272.59990434873976,232.8224759092382,625.8534097248729,AC,Grachtengordel-West,19.0,0.0,86.0
28,48579568,Twenty 5 room 2,Centrum-West,52.37722,4.88864,Private room in bed and breakfast,2,1.0,124.0,26,4.23,POINT (121051.23230731557 487822.3421859837),4.036558691857327,508.0656951268032,249.89200689794205,652.0739474257795,834.2956315447005,331.1572074105555,268.8778961313352,515.1654025205817,AC,Grachtengordel-West,19.0,0.0,86.0
29,48841483,Stylish Canal House A,Centrum-West,52.37532,4.88951,Entire rental unit,4,4.0,300.0,37,4.51,POINT (121109.02078230656 487610.5350648521),84.64437508961603,370.29011922620793,157.08492147195687,761.8674667538953,814.1766627677115,244.04969402179188,88.74492320111509,308.6441331224648,AC,Grachtengordel-West,19.0,0.0,86.0
30,48947535,Big & luxurious 200M2 loft in city centre!,Centrum-West,52.37616,4.8911,Entire townhouse,4,4.0,1250.0,3,5.0,POINT (121217.93198255019 487703.25370518974),36.08486027591331,304.6960852382504,287.150811650225,837.3704239960497,686.0111582107581,131.75175970502647,78.36336472776968,338.5272406889424,AC,Grachtengordel-West,19.0,0.0,86.0
31,50236155,Karakteristiek huis midden in Amsterdam centrum.,Centrum-West,52.37641,4.89078,Entire rental unit,2,1.0,175.0,1,4.0,POINT (121196.33246624618 487731.21870298183),70.65015744049957,336.8747770951091,280.08517179397137,810.1536868778571,702.310390393436,161.08460344156327,111.5101339076412,371.6203874867932,AC,Grachtengordel-West,19.0,0.0,86.0
32,53496388,Live like a local,Centrum-West,52.37663,4.88951,Entire rental unit,2,2.0,555.0,6,5.0,POINT (121110.02177254365 487756.2897385685),20.4102517548924,424.9330066013797,226.86317028997212,720.5591218346325,784.6143998754637,250.65540500984508,180.5124719195853,428.7906018723602,AC,Grachtengordel-West,19.0,0.0,86.0
33,545360550318749900,Townhouse with mini Spa/sauna,Centrum-West,52.37455,4.88865,Entire townhouse,4,2.0,480.0,5,5.0,POINT (121049.86951875528 487525.26502093405),19.50788165477845,313.1427253606917,117.99190775371582,743.7456738820669,897.3440713824508,300.5422934313998,131.6527144716386,300.6751501456766,AC,Grachtengordel-West,19.0,0.0,86.0
34,561997609077687306,LOVELY 2BR GUEST SUITE IN THE HEART OF AMSTERDAM,Centrum-West,52.37397,4.8878,Private room in guest suite,4,2.0,256.0,29,4.66,POINT (120991.54288205266 487461.13098207413),58.439732173096246,297.5895102169437,136.99529979287863,726.4322322126267,938.2986049744692,236.15060007709755,208.8316757663033,331.09389138203204,AC,Grachtengordel-West,19.0,0.0,86.0
35,595460980043012732,De Achterkamer - Tiny Attic on Herengracht,Centrum-West,52.376823,4.889421,Private room in casa particular,1,1.0,119.0,45,4.87,POINT (121104.10897885213 487777.80514570937),7.132500474775955,440.1282400600288,239.0647317136156,710.8005823631164,788.5003596184162,264.1961275788809,200.3390909494903,450.58013488444095,AC,Grachtengordel-West,19.0,0.0,86.0
36,668849003481379234,Fijn appartement binnen de grachtengordel,Centrum-West,52.37713,4.88816,Entire condo,2,1.0,250.0,4,5.0,POINT (121018.47905010456 487812.55347118684),31.18101001751664,532.042561389048,229.5198501709488,620.8321380835191,868.3973696687448,356.5719052974999,285.90683478520776,524.3579113738197,AC,Grachtengordel-West,19.0,0.0,86.0
37,692457612756872985,Stunning 2-bedroom loft with large terrace,Centrum-West,52.37645,4.88852,Entire condo,3,2.0,432.0,3,5.0,POINT (121042.47168968807 487736.72580352944),64.93869790059637,479.0591648335972,169.67250019257443,658.99260750963,853.9566904840161,310.2300298444946,222.4647339607189,448.6667568452219,AC,Grachtengordel-West,19.0,0.0,86.0
38,713519858437285439,NEW: private room Canal Amsterdam Centre/Jordaan,Centrum-West,52.37491,4.88771,Private room in casa particular,2,2.0,109.0,14,4.93,POINT (120986.13498558961 487565.7604980867),70.55850400428908,381.4067511523752,42.65739786158252,668.5488253786671,944.7384765494508,251.74037113836053,192.3203058911941,376.09396600532335,AC,Grachtengordel-West,19.0,0.0,86.0
39,732311509622111180,Short Rent Apartment Amsterdam Jordaan (w Terrace),Centrum-West,52.377081,4.88889,Entire condo,4,1.0,120.0,0,,POINT (121068.14903532344 487806.75952633575),14.36130217505087,485.63372662469817,243.185507424776,670.8272172498058,821.3914531569437,309.0404586110969,245.93759428351808,493.2091504297669,AC,Grachtengordel-West,19.0,0.0,86.0
40,751544609103035523,New Design Canal Home,Centrum-West,52.37693,4.88835,Entire home,4,3.0,414.0,1,5.0,POINT (121031.263431169 487790.21177088097),33.79605716391438,510.57742474768617,212.5747096291533,636.9061926629159,860.3271120212997,336.3020083535616,261.8254692254105,498.6930758202146,AC,Grachtengordel-West,19.0,0.0,86.0
41,219276,Suite in Canalhouse in the heart of the center,Centrum-West,52.36883,4.88749,Private room in guest suite,2,1.0,300.0,17,4.88,POINT (120966.4893557824 486889.3847234446),58.400866605279965,205.47903930956736,239.64349030164664,781.8345007579779,940.3660823231448,320.7777028231738,263.0387626833652,598.4979662279553,AC,Grachtengordel-West,19.0,0.0,86.0
42,1523635,Canal View Studio Keizersgracht,Centrum-West,52.37004,4.88501,Private room in rental unit,2,1.0,120.0,288,4.71,POINT (120798.52144138509 487025.18036126485),66.18608000804717,418.05526670503474,42.45685784136433,747.5077212986027,1090.0367343073965,441.9595518315907,295.3267932602838,623.0717499689572,AC,Grachtengordel-West,19.0,0.0,86.0
43,1570315,Canal View Apartment Keizersgracht,Centrum-West,52.37016,4.885,Private room in rental unit,2,2.0,133.0,260,4.64,POINT (120797.93292951596 487038.53663378046),57.6718470725937,425.74302872475306,29.52418117416088,754.8666712658987,1089.050813983381,428.6101437981639,291.45977732996056,616.097227592406,AC,Grachtengordel-West,19.0,0.0,86.0
44,1901877,Comfortable bedroom in 9 streets,Centrum-West,52.37104,4.88724,Private room in rental unit,2,2.0,120.0,377,4.9,POINT (120951.15938960576 487135.39328686526),104.31504318752916,278.53825482203456,160.76719602923896,923.1220093516492,929.358944801088,374.0406701862184,124.00400686095306,434.8837579663125,AC,Grachtengordel-West,19.0,0.0,86.0
45,1912704,Luxury studio on the Herengracht,Centrum-West,52.36991,4.88717,Entire condo,2,1.0,199.0,25,4.92,POINT (120945.52478789 487009.6990219971),55.84729177767272,292.1790308182689,151.1704953141079,863.778942212006,946.6699601713208,338.59153655918647,176.05679597578018,519.6348859132206,AC,Grachtengordel-West,19.0,0.0,86.0
46,3829648,Luxury 17th century monument home with canal views,Centrum-West,52.37385,4.88359,Entire home,4,5.0,439.0,17,5.0,POINT (120704.76059108289 487449.7633700884),6.922440687394439,536.6176924210431,23.196994653219345,523.7416700535756,1210.6316326163392,27.96054318930607,83.27939241786316,611.4925614929989,AC,Grachtengordel-West,19.0,0.0,86.0
47,4096584,"Bright appartment in the 9 streets, w/balcony",Centrum-West,52.36989,4.88679,Entire rental unit,2,1.0,150.0,34,4.88,POINT (120919.63008840382 487007.6523892953),58.99105304358603,309.81482240346924,128.52184934234006,840.2041408143997,972.5634835803744,363.9056047469067,197.1405850715568,539.6145552132408,AC,Grachtengordel-West,19.0,0.0,86.0
48,4187658,Spacious houseboat for family,Centrum-West,52.36957,4.88305,Houseboat,4,3.0,289.0,99,4.8,POINT (120664.6751955614 486973.81355688773),44.02908088638559,517.4442639779198,79.47594867109875,609.7655844596127,1131.848603383838,350.2798467254219,438.6887253278565,763.2033255228691,AC,Grachtengordel-West,19.0,0.0,86.0
49,6735459,Canal View Loft,Centrum-West,52.36894,4.88657,Entire townhouse,2,1.0,185.0,101,4.86,POINT (120903.91714437105 486902.05607348686),49.409898036314296,268.0897688378018,192.0273024298916,753.1512969152183,970.2977095473576,380.12160620179066,284.204259294496,627.0043569576416,AC,Grachtengordel-West,19.0,0.0,86.0
50,11097614,Beautiful & Stylish Amsterdam House,Centrum-West,52.36947,4.88491,Entire rental unit,4,2.0,414.0,105,4.95,POINT (120791.27155791348 486961.80768478266),101.55901395893282,395.0207464356509,106.20464142371566,706.4014805345909,1065.8954313433426,462.2239973899917,329.3235461271892,666.6749083929158,AC,Grachtengordel-West,19.0,0.0,86.0
51,15564639,Beautiful place located right in the centre,Centrum-West,52.37327,4.88363,Private room in rental unit,2,1.0,90.0,169,4.63,POINT (120707.03607214913 487385.21189506655),59.564563646957225,514.2021104289524,70.94563526010101,577.8858940772124,1194.586602020324,90.00919495556309,147.20732534376734,605.0416352088237,AC,Grachtengordel-West,19.0,0.0,86.0
52,18263868,Luxurious private suite City center of Amsterdam,Centrum-West,52.36952,4.88557,Private room in rental unit,2,1.0,233.0,261,4.98,POINT (120836.25882268502 486967.05950404616),87.23311453609047,356.5588098559184,104.55603392754492,747.699409554731,1054.0909374105777,443.8705057964647,288.480709546738,628.7137842252796,AC,Grachtengordel-West,19.0,0.0,86.0
53,18423345,Luxurious private suite City center of Amsterdam,Centrum-West,52.37126,4.88618,Private room in rental unit,2,1.0,211.0,114,4.96,POINT (120879.1407331418 487160.36967531074),101.32481867163176,337.54310393104146,118.79572052122413,860.5355601017138,1001.0529399569408,328.8249174979192,198.3540776241084,484.5529949197677,AC,Grachtengordel-West,19.0,0.0,86.0
54,19339775,Ideal Apartment for discovering Amsterdam!,Centrum-West,52.37156,4.88617,Private room in rental unit,3,2.0,191.0,97,4.87,POINT (120878.69048474912 487193.7532780887),78.42069687337252,330.43158720345275,146.26220800278855,833.0216314194171,1002.073091036888,297.9723591281385,206.7120849468824,470.91637627916725,AC,Grachtengordel-West,19.0,0.0,86.0
55,20178478,Romantic little studio with canal view in centre.,Centrum-West,52.37194,4.88668,Private room in bed and breakfast,2,1.0,144.0,237,4.66,POINT (120913.71398847719 487235.79322041536),33.77842273891741,290.6133191336342,200.393219798308,821.2369989379404,969.4501298691466,278.57982592768684,193.43631123630075,422.9735260305378,AC,Grachtengordel-West,19.0,0.0,86.0
56,24133446,Lovely Van Gogh studio @ Historic city centre,Centrum-West,52.37035,4.88609,Private room in rental unit,2,1.0,131.0,294,4.84,POINT (120872.31150516492 487059.1627514025),19.3422233843841,379.3934782054778,67.12536199834298,827.4559478387123,1012.9098196057124,420.2676021396997,214.380841661696,543.1886948938525,AC,Grachtengordel-West,19.0,0.0,86.0
57,24134953,Starynight Room,Centrum-West,52.37035,4.8861,Private room in rental unit,2,1.0,176.0,209,4.92,POINT (120872.9925334804 487059.15804242424),20.01467604966916,378.88549123704433,67.80228509946139,828.0150156966175,1012.2326428742656,419.6058143236094,213.73861542308643,542.6403159513782,AC,Grachtengordel-West,19.0,0.0,86.0
58,26152770,2  private rooms in Amsterdam city centre,Centrum-West,52.37287,4.88827,Private room in bed and breakfast,4,2.0,262.0,50,4.0,POINT (121022.70599804164 487338.5211825256),74.02804335334618,200.4844300554628,134.59027547192076,825.26448669309,875.881956995035,295.71063989852246,215.9488336902016,292.0325513505897,AC,Grachtengordel-West,19.0,0.0,86.0
59,27081619,Newly furnished apartment in center,Centrum-West,52.36935,4.88303,Private room in rental unit,2,1.0,187.0,82,4.7,POINT (120663.14282829082 486949.3451911427),30.69880502304117,510.6886919793452,90.99645899643066,593.4937237913829,1111.1802916109568,338.27482430046274,449.33357770065663,777.7181187419734,AC,Grachtengordel-West,19.0,0.0,86.0
60,31072230,Luxury Canal Suite De Heren,Centrum-West,52.37202,4.88737,Private room in townhouse,3,2.0,265.0,67,4.94,POINT (120960.76465066186 487244.3699524374),5.583099575075037,243.21576228223623,216.1304207494695,845.6654520072775,923.2955529474644,301.42499041419023,162.35681590944807,375.861250357262,AC,Grachtengordel-West,19.0,0.0,86.0
61,32068256,Historic canal house in the middle of De Jordaan!,Centrum-West,52.3736,4.88318,Private room in home,4,2.0,274.0,101,4.98,POINT (120676.64718298707 487422.1417190321),29.066226937884707,553.7880019530273,59.71029908604699,530.3628412326699,1231.7724659565306,66.55347248862894,109.18480828339392,636.9139177816295,AC,Grachtengordel-West,19.0,0.0,86.0
62,36609293,Authentic Suite with Canal View in Heart of City,Centrum-West,52.36903,4.88716,Room in bed and breakfast,2,1.0,193.0,147,4.9,POINT (120944.16818642164 486911.7923286775),42.08462737589545,235.3198479223283,208.0568311187246,785.1441459012841,967.8636591446472,338.9053124927146,253.5654661863215,593.9084278249481,AC,Grachtengordel-West,19.0,0.0,86.0
63,36711377,“CANAL HOUSE” in Center of Amsterdam - famous area,Centrum-West,52.37089,4.88412,Entire condo,2,1.0,600.0,24,4.63,POINT (120738.5660124133 487120.1742462858),51.289390103559214,483.7514407869402,85.58031224978663,762.1444625633035,1142.3206202131737,345.2712082274988,336.5481586914491,628.7853047565349,AC,Grachtengordel-West,19.0,0.0,86.0
64,39529278,"Hoxton Amsterdam, Cosy Room",Centrum-West,52.37154,4.88654,Room in boutique hotel,2,1.0,308.0,9,4.56,POINT (120903.87247224781 487191.35387981765),75.64627306492329,306.15581124790947,158.43948312345026,849.9501171788598,976.8257383793896,311.3477139914933,182.13232994124613,448.8452603183534,AC,Grachtengordel-West,19.0,0.0,86.0
65,39529472,"Hoxton Amsterdam, Roomy Room",Centrum-West,52.37274,4.88716,Room in boutique hotel,2,1.0,379.0,0,,POINT (120947.0163408386 487324.57797555055),67.26978682476,266.723117347033,210.4489993715773,778.4470554430266,947.5858703307792,237.56096754228784,233.73150824966245,368.9269947288834,AC,Grachtengordel-West,19.0,0.0,86.0
66,40525783,Apartment Canal House Wester Church (2p),Centrum-West,52.373104,4.885465,Private room in condo,2,1.0,236.0,24,5.0,POINT (120831.8686542844 487365.87550700305),64.7143410625953,388.84068576420674,135.83368035727898,669.1409393240992,1068.356927233278,125.2039857630221,220.2175280272828,480.3269294725246,AC,Grachtengordel-West,19.0,0.0,86.0
67,42134255,9 Streets Cozy Room in the city centre,Centrum-West,52.36937,4.88695,Private room in home,2,1.0,100.0,12,4.92,POINT (120930.1272886009 486949.7204287778),14.366476672658807,266.4961927861977,171.0479001976198,807.14770645443,973.0500965393444,349.9718985468157,230.496383032568,573.8693041852276,AC,Grachtengordel-West,19.0,0.0,86.0
68,42706465,Fresh Jordaan studio on Prinsengracht,Centrum-West,52.37265,4.88417,Private room in guest suite,2,1.0,110.0,0,,POINT (120743.33034833116 487315.97344641376),38.38127125830709,464.8524092476621,137.98784028139286,655.7303888786596,1147.5183415262754,149.55002143657686,222.44096844633705,572.085873954887,AC,Grachtengordel-West,19.0,0.0,86.0
69,45747871,Garden view city centre penthouse suite,Centrum-West,52.37115,4.88488,Private room in bed and breakfast,2,1.0,160.0,50,4.88,POINT (120790.52404029985 487148.7435979135),89.35415259495161,426.1637981225849,83.09712589238221,819.524487992357,1089.7272707543416,318.2316179153584,285.1587653596136,569.7033216529794,AC,Grachtengordel-West,19.0,0.0,86.0
70,48004711,Residences | 3-Bedrooms | Serviced Apartment,Centrum-West,52.36893,4.88469,Entire serviced apartment,6,5.0,369.0,14,4.64,POINT (120775.87203926801 486901.8295740804),84.77218058449736,390.11508888285465,167.86718042047437,663.216478757344,1017.3595860940115,431.341859448186,375.6097870599052,717.1171559797382,AC,Grachtengordel-West,19.0,0.0,86.0
71,48004925,Residences | 3-Bedrooms | Serviced Apartment,Centrum-West,52.37118,4.88286,Entire serviced apartment,4,4.0,385.0,10,4.1,POINT (120652.98205191948 487153.03691333515),20.020118086992213,559.7830855869049,158.94994518823364,728.0975479590378,1227.2310625156135,327.9908896973423,379.32810446998974,696.4062719318839,AC,Grachtengordel-West,19.0,0.0,86.0
72,49867500,Beautiful Van Gogh studio @BEST location centre,Centrum-West,52.371,4.88703,Private room in serviced apartment,2,1.0,131.0,64,4.66,POINT (120936.82730064218 487131.04144988547),108.15013497411802,293.3783935719337,145.9607487941045,917.9720061963322,943.8094163748802,380.0759710348944,138.18623266232507,449.2262839863619,AC,Grachtengordel-West,19.0,0.0,86.0
73,50243968,60m2 loft on Prinsengracht with garden,Centrum-West,52.37056,4.88335,Entire loft,2,1.0,121.0,1,5.0,POINT (120685.8722084592 487083.8217708063),11.179819533131743,544.7708013657619,120.94777042815348,699.0564983634969,1196.7458090390992,387.5048523980118,391.7400162462206,691.8463216161778,AC,Grachtengordel-West,19.0,0.0,86.0
74,50409281,"Lovely luxurious 42m2 studio in ""9 Streets""",Centrum-West,52.37129,4.88595,Entire loft,2,1.0,252.0,9,5.0,POINT (120863.50049006309 487163.81587610673),101.92311438161634,351.7286003535551,112.75359004765784,848.8800076836361,1016.700412319722,320.0196097084686,214.34452384328603,497.0800275964573,AC,Grachtengordel-West,19.0,0.0,86.0
75,51185001,Beautiful appartment in the city center,Centrum-West,52.3727,4.88769,Entire condo,2,1.0,260.0,6,5.0,POINT (120983.07822369409 487319.8785506976),83.35969219772996,230.7899047240164,174.76348968320133,807.8293345284419,911.257397873596,269.99296592235635,211.8589073626408,334.07493144663744,AC,Grachtengordel-West,19.0,0.0,86.0
76,52050592,Stylish Amsterdam Pad - whole apt to yourself!,Centrum-West,52.36954,4.88697,Private room in condo,4,2.0,414.0,5,5.0,POINT (120931.61993213759 486968.6257274162),19.179568851725683,276.0371647225012,159.85276240925154,823.4613569327784,967.6779623749126,348.5873187033593,215.1211190732614,558.8834927726691,AC,Grachtengordel-West,19.0,0.0,86.0
77,53122590,Cannel City-Center Apartment + remote work hotspot,Centrum-West,52.37293,4.88354,Entire rental unit,4,2.0,400.0,8,4.63,POINT (120700.64431080902 487347.4250660967),53.75055867384864,512.0554658097984,109.06462070627552,606.5320802273474,1194.353296001723,128.2994009595125,184.07151959960373,612.1580498474676,AC,Grachtengordel-West,19.0,0.0,86.0
78,53544518,Quadruple Room,Centrum-West,52.3725,4.88846,Room in boutique hotel,4,4.0,292.0,12,4.75,POINT (121035.36149006481 487297.26480061753),69.9744381249889,174.30209429277286,127.4156098459465,861.7754738714909,855.9170461260184,326.3603561350506,172.87090687340608,288.24364342624546,AC,Grachtengordel-West,19.0,0.0,86.0
79,53585990,Triple room,Centrum-West,52.37251,4.8869,Room in boutique hotel,3,2.0,248.0,2,5.0,POINT (120929.13389365972 487299.10968249245),37.99475368580167,278.6183735213858,230.8198341473393,784.0437774918298,961.1853545865832,240.22010766510732,224.08478891023705,390.9658857259543,AC,Grachtengordel-West,19.0,0.0,86.0
80,53586616,Double Room,Centrum-West,52.37044,4.88764,Room in boutique hotel,2,1.0,187.0,3,3.33,POINT (120977.93992559807 487068.4476487114),60.638069693304494,291.44524530374224,172.29640835813888,921.2918214333034,906.8826346985132,321.91767216430264,114.39783323619034,455.502878787733,AC,Grachtengordel-West,19.0,0.0,86.0
81,53720274,Twin Room Canal view,Centrum-West,52.37028,4.88638,Room in boutique hotel,2,2.0,191.0,19,4.32,POINT (120892.00750409669 487051.23782201525),40.34157697981043,359.5445615644106,87.79109268734476,839.4030501556516,994.1489660373484,399.2478699144874,198.82791280679933,532.2007987375982,AC,Grachtengordel-West,19.0,0.0,86.0
82,602690013070348494,Beautiful appartment in Amsterdam Canal Belt area,Centrum-West,52.37285,4.88512,Entire condo,2,1.0,300.0,1,5.0,POINT (120808.17884427936 487337.7774155798),63.69388716885302,404.7290093969551,140.59614074673016,675.5752826688749,1086.662221526439,137.7576229536028,228.5027951325404,505.4689169029608,AC,Grachtengordel-West,19.0,0.0,86.0
83,616463734050068121,NEW! Roof terrace apartment in Jordaan Area!,Centrum-West,52.36929,4.88287,Private room in condo,2,1.0,141.0,55,4.55,POINT (120652.19967522153 486942.7452344139),40.139379060756944,504.4070031079381,87.40375874720276,580.7865376582197,1110.8516932740404,325.5988369669234,462.0058370696844,790.4863137887105,AC,Grachtengordel-West,19.0,0.0,86.0
84,621544295248183694,Comfortable 1-bedroom in the heart of the city,Centrum-West,52.37075,4.88785,Private room in condo,1,1.0,85.0,1,5.0,POINT (120992.47914973681 487102.8406085996),62.324661217321065,259.0352251385126,190.23001300636352,951.7969361418692,889.5501709598333,322.32654754741844,86.56623775209458,421.74215627347513,AC,Grachtengordel-West,19.0,0.0,86.0
85,648233252752355249,Grand 4 Bedroom Townhouse with a Roof Terrace,Centrum-West,52.3694497,4.88417,Entire townhouse,4,4.0,1100.0,6,5.0,POINT (120740.85879042235 486959.8985985081),52.776851108,441.0535984630673,125.20358169734156,662.9485421517385,1084.8161447377208,414.1659204265964,374.4921513459172,707.8798709439478,AC,Grachtengordel-West,19.0,0.0,86.0
86,653475769996837641,Stylish loft in the middle of Amsterdam-Centrum,Centrum-West,52.37294,4.88438,Entire condo,2,1.0,280.0,9,4.89,POINT (120757.8550725712 487348.1404721301),72.93487922284987,456.106886742635,109.17635482722572,637.1460459545284,1138.0051762065202,116.9184284235886,196.3686747122168,554.9898368748466,AC,Grachtengordel-West,19.0,0.0,86.0
87,669119223985158714,Spacious & luxury apartment in Amsterdam center,Centrum-West,52.37312,4.88535,Entire condo,2,1.0,295.0,1,5.0,POINT (120824.04964322559 487367.70994046686),65.97382896654774,396.85529414412525,128.7116373433661,662.6163420126202,1076.3829395593093,119.08529414754187,213.7165895243664,488.10076758878,AC,Grachtengordel-West,19.0,0.0,86.0
88,694704547237778151,Amsterdam Canal House in 'Negen Straatjes' area,Centrum-West,52.37217316133992,4.886719028836066,Entire condo,2,2.0,282.0,8,5.0,POINT (120916.55102406666 487261.7170947742),12.434935715292072,287.435308717594,224.0545897836365,803.2961759927397,969.0002982755584,259.4212052067876,206.6871667363657,412.2508046710951,AC,Grachtengordel-West,19.0,0.0,86.0
89,700579143087613212,Canal House in Amsterdam,Centrum-West,52.3702,4.88605,Entire condo,4,2.0,372.0,1,5.0,POINT (120869.47198220197 487042.49214491784),25.69201215929164,370.5922427745263,68.37884126210614,815.7760239748393,1017.5248267096292,419.3163855357448,222.9901849233856,555.3997039369733,AC,Grachtengordel-West,19.0,0.0,86.0
90,738971999005460220,Spacious 1300sqft 3bedroom apartment city center,Centrum-West,52.36948,4.88287,Entire condo,4,3.0,647.0,1,5.0,POINT (120652.3467878427 486963.88518767897),46.7500988462056,525.525257818473,73.62608136283241,593.9364305744934,1129.1455899556115,334.7745192139182,453.7588656398685,778.9207085908303,AC,Grachtengordel-West,19.0,0.0,86.0
91,752910050509942339,Luxury Canal Home,Centrum-West,52.37394,4.8836,Entire home,4,3.0,407.0,3,5.0,POINT (120705.51115174827 487459.7723095703),7.100405075862993,539.6823862195888,23.19649290134411,516.2355607930348,1212.3392598890316,19.133984085524787,73.75425424444298,612.0028654387224,AC,Grachtengordel-West,19.0,0.0,86.0
92,774240782189645913,Sweet and comfortable,Centrum-West,52.36977,4.88538,Entire rental unit,4,2.0,219.0,0,,POINT (120823.51164894097 486994.9648206917),73.70803677735253,381.091564876132,74.25037244165773,751.3295292840138,1069.485859890999,458.06833106735286,284.97519627612184,620.8177112267743,AC,Grachtengordel-West,19.0,0.0,86.0
93,50523,B & B de 9 Straatjes (city center),Centrum-West,52.36811,4.88262,Private room in bed and breakfast,2,1.0,127.0,363,4.87,POINT (120634.259468696 486811.5735324789),40.21280222958484,374.7694869098793,199.14838482272725,496.004591767,1009.4118400064611,280.28831547218704,447.8004585261391,883.3255233965825,AC,Grachtengordel-West,19.0,0.0,86.0
94,245927,Sonnenberg - Canal side & view - Private & Central,Centrum-West,52.36815,4.88604,Entire guest suite,4,3.0,439.0,161,4.84,POINT (120867.21366622872 486814.4078461925),68.84935005673049,286.6484322803883,260.02009958653804,661.0272300190369,900.6385953652843,436.8004154182601,377.0176746672438,718.0234283855244,AC,Grachtengordel-West,19.0,0.0,86.0
95,5133110,Keizer Canal View House in 9streets,Centrum-West,52.3687,4.88595,Private room in bed and breakfast,4,2.0,271.0,20,4.5,POINT (120861.50735527703 486875.6448392619),7.684515601693765,300.6839315702996,199.3744363451181,707.107337059099,959.6726246969738,426.3819684851402,331.31095985445376,674.8245221595433,AC,Grachtengordel-West,19.0,0.0,86.0
96,13256599,Sabine and Walter Euler apartment,Centrum-West,52.36861,4.88607,Entire rental unit,3,1.0,210.0,89,4.84,POINT (120869.61075681911 486865.574657695),20.43559948170692,290.5394583738668,211.3697692752781,703.5012162423502,947.3694246645528,420.50945741864285,334.03094105816734,677.0317226468393,AC,Grachtengordel-West,19.0,0.0,86.0
97,19771245,Loft Leidsegracht - Private studio + Roof terrace!,Centrum-West,52.36665,4.88254,Entire rental unit,2,1.0,196.0,234,4.78,POINT (120627.67979979204 486649.1676879421),38.94527819178506,215.1053762358776,237.47804285218947,393.3864411563219,884.7820766364072,247.434015515668,469.0084801859692,999.7945178721124,AC,Grachtengordel-West,19.0,0.0,86.0
98,23314984,Luxury canal studio at street level,Centrum-West,52.36866,4.8868,Private room in bed and breakfast,3,2.0,187.0,199,4.99,POINT (120919.36618756187 486870.7942722472),62.061304681920944,243.4790673776047,226.8078449457988,737.5848706218327,935.7884660140498,370.8565183463591,301.4817747540524,641.4827512835983,AC,Grachtengordel-West,19.0,0.0,86.0
99,30946085,Luxe Central Historic Monument On Water,Centrum-West,52.36847,4.8876,Entire rental unit,4,4.0,297.0,19,5.0,POINT (120973.70480154676 486849.27841834485),18.98907631704972,185.4352429620831,275.0643692753065,756.5420535011119,899.7535137788042,324.76607172272315,297.49655575454926,627.7492980436925,AC,Grachtengordel-West,19.0,0.0,86.0
100,34386174,"Romantic private studio | Canal, Centre, 9 streets",Centrum-West,52.36742,4.88462,Private room in rental unit,2,1.0,136.0,111,4.7,POINT (120769.93959872506 486733.85565676226),88.7247905856018,310.8539579654952,325.27307288392615,538.4094787194116,871.0789730739436,401.5174285827374,461.2015347652268,841.9293285366055,AC,Grachtengordel-West,19.0,0.0,86.0
101,36967525,Charming 110m2 canalhouse  w/ homecinema & 2bikes,Centrum-West,52.36823,4.88483,Entire loft,3,2.0,260.0,15,4.86,POINT (120784.86685635839 486823.8794352675),94.20813583513898,369.3295104254536,244.0416973875288,621.9757756280617,943.265463386693,431.0569061382132,421.039783547746,764.8583981629366,AC,Grachtengordel-West,19.0,0.0,86.0
102,46293762,Canal Suites in center + sauna + parking option,Centrum-West,52.36821,4.88274,Private room in townhouse,4,4.0,329.0,10,5.0,POINT (120642.50966641994 486822.64292582934),53.63257082902771,385.0576703750944,190.36103831999253,508.3527187051517,1013.9331394427188,288.7315155460119,455.9195677402971,869.9028842515721,AC,Grachtengordel-West,19.0,0.0,86.0
103,46347796,Lil' Dutch Studio,Centrum-West,52.36772,4.88426,Private room in rental unit,2,1.0,101.0,19,3.79,POINT (120745.65260192033 486767.4046124323),125.15265133661492,336.7550506073382,283.9107842879667,553.3593961317247,912.29371302549,394.2200907665533,489.100640505824,832.8679948400394,AC,Grachtengordel-West,19.0,0.0,86.0
104,47917082,Superior Suite with gorgeous view,Centrum-West,52.36858,4.88712,Private room in bed and breakfast,2,1.0,248.0,118,4.69,POINT (120941.09850577735 486861.7428069625),51.90409750977146,220.123394330418,245.9496068466605,744.3330510286916,920.6734210067,352.10378808338186,298.92348909863165,635.7435084183604,AC,Grachtengordel-West,19.0,0.0,86.0
105,48004432,Residences | 2-Bedrooms | Serviced Apartment,Centrum-West,52.36682,4.88388,Entire serviced apartment,4,3.0,227.0,23,4.43,POINT (120719.07655161266 486667.4476997144),57.894273633602594,233.44633178600515,253.64304876389528,454.85289923841657,842.6883791598832,318.2994725674468,433.48019962722736,925.4942577885498,AC,Grachtengordel-West,19.0,0.0,86.0
106,649074843359124203,Private living and bedroom 38 sqm in canal house.,Centrum-West,52.36722,4.88399,Private room in rental unit,2,1.0,131.0,47,5.0,POINT (120726.87747599561 486711.90082156035),80.84414354336697,278.5638349515167,298.7727932530576,496.2526425898062,875.0132203587419,356.5983143091413,464.73142492215806,886.6520684669283,AC,Grachtengordel-West,19.0,0.0,86.0
107,649101816251286416,Quiet bedroom in canal house.,Centrum-West,52.36762,4.88266,Private room in rental unit,2,1.0,103.0,64,4.81,POINT (120636.60416921883 486757.03575664107),45.51269856951537,320.29128452037816,253.1156940789399,476.49087839874977,963.6022763062496,287.9418767956863,454.737794129629,917.5244978499418,AC,Grachtengordel-West,19.0,0.0,86.0
108,738920412141670525,Cozy two bedroom loft in the old center,Centrum-West,52.3662,4.88279,Private room in rental unit,4,2.0,159.0,0,,POINT (120644.35845160732 486598.9808702629),30.06030358202102,162.6581585885891,184.97771583848225,356.8221597441915,836.167394544663,217.235768707018,417.4805733358545,1026.0191527391714,AC,Grachtengordel-West,19.0,0.0,86.0
109,740458785932706226,Stunning canal monument City Center,Centrum-West,52.36704,4.88428,Entire loft,2,1.0,399.0,0,,POINT (120746.48971065973 486691.73640313273),53.34576540207,263.6550800106924,282.9810433305649,490.4802462628661,847.4124177851788,354.82475941402544,437.0591640395058,889.3003804308945,AC,Grachtengordel-West,19.0,0.0,86.0
110,21458065,Private 'hotelroom' in canal house,Centrum-West,52.36802,4.88603,Private room in condo,2,1.0,175.0,134,4.96,POINT (120866.43257991962 486799.9483780849),83.13315459777385,287.3033562586932,273.91542793213773,649.188453098884,887.5623209249342,442.4682907471156,389.58216155875874,729.9050202477255,AC,Grachtengordel-West,19.0,0.0,86.0
111,554197353421997470,Red light historic canal island city centre,Centrum-West,52.3774,4.90321,Private room in bed and breakfast,4,4.0,700.0,3,4.0,POINT (122043.47123402375 487835.64394724235),114.61308397073174,399.3725347559167,282.1143737676678,698.1439988575582,153.4006535124299,85.00913234897732,50.4495565372528,862.7155778978708,AD,Burgwallen-Nieuwe Zijde,12.0,0.16,166.0
112,555425495534892520,in het centrum van China buurt koning paleis enDam,Centrum-West,52.37679,4.90298,Private room in bed and breakfast,4,4.0,647.0,2,5.0,POINT (122027.35656148245 487767.8779944762),64.08901273323045,333.8615066454794,268.6669543799557,767.5377781035355,155.1047647371719,40.749706434814605,92.50728143680772,814.5837108027531,AD,Burgwallen-Nieuwe Zijde,12.0,0.16,166.0
113,656950958992599807,Stunning loft with roof terrace in city center AMS,Centrum-West,52.38024,4.8967,Entire condo,4,2.0,337.0,8,4.13,POINT (121602.33064971316 488154.61190863047),205.9962625855851,545.6146970875044,203.7089684583441,637.8545273635877,303.3331212046796,170.29729607436633,138.85709180543265,828.9949744730424,AD,Burgwallen-Nieuwe Zijde,12.0,0.16,166.0
114,80635,TOP LOCATED Canalhouse B&B Jordaan,Centrum-West,52.37828,4.8944,Private room in home,1,1.0,113.0,238,4.77,POINT (121444.24599556874 487937.5984549958),23.39487844340222,373.5364232288855,103.6110263344517,906.0520317720212,426.4758210003525,248.8042357110632,99.64986923177251,574.9155950967678,AD,Burgwallen-Nieuwe Zijde,12.0,0.16,166.0
115,3929712,Buenas Noches - The Loft,Centrum-West,52.3773,4.89475,Private room in bed and breakfast,2,1.0,97.0,563,4.89,POINT (121467.33678234978 487828.39852553664),6.007326543418849,262.4882368557083,152.23184257303612,971.4189720314238,422.9653646119003,157.22248954106428,12.306361001211547,476.33522056951176,AD,Burgwallen-Nieuwe Zijde,12.0,0.16,166.0
116,4043288,"TOPLOCATED room, private bath, 5 walkmins CS",Centrum-West,52.37808,4.89456,Private room in townhouse,1,1.0,111.0,112,4.58,POINT (121454.98923195354 487915.2717423919),27.56197136001241,350.1418731469387,100.619203831908,918.8631885634236,420.0019329221343,230.4958911362073,75.61298346560106,555.8762183418092,AD,Burgwallen-Nieuwe Zijde,12.0,0.16,166.0
117,17967394,★★★★★ | BEST LOCATION | UNIQUE EXPERIENCE | ★★★★★,Centrum-West,52.37916,4.89514,Private room in guest suite,4,2.0,325.0,251,4.84,POINT (121495.29793201556 488035.1676953097),50.45316309994436,468.2649131054948,87.4850405361947,796.6704653025303,371.5688581560287,300.0118057402219,192.41168708798645,682.1490789458152,AD,Burgwallen-Nieuwe Zijde,12.0,0.16,166.0
118,20774847,BB Amsterdam CS,Centrum-West,52.37815,4.89695,Private room in condo,4,3.0,160.0,273,4.81,POINT (121617.7794187626 487921.9565583387),21.469948579604992,377.1778810735136,81.07920717267261,800.7440666047443,260.94818036340814,275.4179229053691,136.93237476189103,623.9018314977583,AD,Burgwallen-Nieuwe Zijde,12.0,0.16,166.0
119,22024078,Appartement center.  best location   -> near dam,Centrum-West,52.37757,4.89514,Entire rental unit,2,1.0,126.0,24,4.5,POINT (121494.09671786285 487858.2591992717),19.6867698069764,291.35418810718926,113.11522771440151,931.352275143952,396.4532807098255,196.9599990723152,31.85511474449569,513.5222715609749,AD,Burgwallen-Nieuwe Zijde,12.0,0.16,166.0
120,24733482,Single City Centre,Centrum-West,52.37725,4.89373,Private room in rental unit,1,1.0,61.0,130,4.87,POINT (121397.84486196545 487823.30782157084),22.34387977595245,272.58490092231455,200.6007498384073,997.0703758654312,492.5822532126903,127.47045067633466,71.80976861971831,453.4162627354689,AD,Burgwallen-Nieuwe Zijde,12.0,0.16,166.0
121,25975448,B&B CityHeartStation 2BR,Centrum-West,52.37859,4.89613,Private room in bed and breakfast,4,2.0,220.0,108,4.44,POINT (121562.27662381608 487971.29041042016),64.4339843463648,410.6955826068077,20.71835285697552,803.3035317108422,305.01066763799395,275.8136001735757,142.83654773258397,643.8127307635265,AD,Burgwallen-Nieuwe Zijde,12.0,0.16,166.0
122,29648361,Canal view suite in centre! (perfect location),Centrum-West,52.37719,4.89296,Private room in rental unit,2,1.0,216.0,43,4.72,POINT (121345.3682868141 487816.9893366626),61.82679509153414,289.0907376478858,243.8351852336905,945.2735168272808,545.2632257302655,125.24832474081371,67.13625073653364,440.1718106912028,AD,Burgwallen-Nieuwe Zijde,12.0,0.16,166.0
123,29845425,Heerengracht 2 Bedroom Apartment 45m² Aircon,Centrum-West,52.37767,4.8928,Private room in bed and breakfast,4,2.0,230.0,95,4.46,POINT (121334.83786301763 487870.46997188975),66.91355400971659,341.09604050034835,196.50549789722112,931.6536959082792,547.2107343080281,179.5851731984971,120.59732088140264,492.91515668450177,AD,Burgwallen-Nieuwe Zijde,12.0,0.16,166.0
124,32888043,Studio anno 1659 - City Centre - Central Station,Centrum-West,52.3776,4.89546,Private room in condo,2,1.0,110.0,254,4.87,POINT (121515.90873846498 487861.4491933819),34.28183599824249,295.6211434677812,101.933152968399,913.9731101776334,374.8326736393746,212.6926486953258,52.65228607852129,524.5901772649054,AD,Burgwallen-Nieuwe Zijde,12.0,0.16,166.0
125,36835036,Gr8 A-located room,Centrum-West,52.3781,4.89447,Private room in townhouse,3,2.0,159.0,24,4.83,POINT (121448.8761723194 487917.5386696578),28.174078689464185,353.06441222845825,105.24689477666308,920.258478942954,425.5138465208613,230.7753006832859,79.06366673942999,556.5330419959627,AD,Burgwallen-Nieuwe Zijde,12.0,0.16,166.0
126,44586588,Green Alley Studio,Centrum-West,52.37733,4.89477,Private room in rental unit,4,1.0,190.0,27,4.56,POINT (121468.72130758551 487831.7271668537),5.243448905694259,265.6874258843698,148.6660419281919,968.0645872628334,421.50143930005777,160.76648670149808,9.05701383714828,479.9332835801886,AD,Burgwallen-Nieuwe Zijde,12.0,0.16,166.0
127,49473475,Singel Hotel Amsterdam: Double Room Canal View,Centrum-West,52.37673,4.8937,Room in boutique hotel,2,1.0,176.0,37,4.73,POINT (121395.40809772267 487765.4648871235),35.285075584311144,220.10446144297512,217.7207300488148,1000.6669495662652,500.34072649037256,70.00149583520574,56.84468239701072,396.25120138512847,AD,Burgwallen-Nieuwe Zijde,12.0,0.16,166.0
128,49473555,Singel Hotel Amsterdam: Economy Twin Room,Centrum-West,52.3788,4.8941,Room in boutique hotel,2,2.0,145.0,30,4.73,POINT (121424.21246972914 487995.59427197906),27.780771359623348,433.7504174035943,58.52740010981945,870.411179162549,441.4092800726901,301.7481438513017,160.83002644071766,627.6093059385594,AD,Burgwallen-Nieuwe Zijde,12.0,0.16,166.0
129,49473612,Singel Hotel Amsterdam: Standard Twin Room,Centrum-West,52.37816,4.89427,Room in boutique hotel,2,2.0,158.0,345,4.66,POINT (121435.30338797528 487924.30707379663),24.552498531682385,361.60566164405617,115.64100694878373,922.0717176086264,437.5321676387546,233.7377781652344,89.5945224182828,559.9533035717499,AD,Burgwallen-Nieuwe Zijde,12.0,0.16,166.0
130,601416681913579450,A’dam Cozy rooms centrum Amsterdam,Centrum-West,52.3782,4.89696,Entire condo,3,2.0,215.0,1,5.0,POINT (121618.49796199158 487927.5151127119),24.48074161861433,382.65450527023,79.35771617437022,796.0810922936514,258.57087686472573,270.428186163046,131.80403453478337,629.1027692986639,AD,Burgwallen-Nieuwe Zijde,12.0,0.16,166.0
131,707179511846809052,amazing canal-view apt in historic city-centre,Centrum-West,52.37757,4.89538,Entire condo,2,1.0,358.0,3,5.0,POINT (121510.43874610888 487858.14826406335),28.00710970879304,291.9067503761879,106.77109027260263,920.1281959938924,380.1237132534874,206.6833940595994,46.33251416343726,519.4369687497241,AD,Burgwallen-Nieuwe Zijde,12.0,0.16,166.0
132,717850951024848124,Cozy apartment in the middle of City Center!,Centrum-West,52.37865,4.89453,Entire rental unit,4,2.0,161.0,5,4.2,POINT (121453.37765997302 487978.70565368165),11.03263667023024,413.4411933757717,85.63371665056468,866.9576577037949,412.9330978871682,290.8874174718922,138.72438849875823,617.0197958028133,AD,Burgwallen-Nieuwe Zijde,12.0,0.16,166.0
133,8188948,Antique Style B&B with Patio in Center,Centrum-West,52.37632,4.89396,Private room in bed and breakfast,2,1.0,176.0,89,4.82,POINT (121412.80180931647 487719.7264627714),20.828233008057687,171.38681292956932,192.276686478812,1024.8830103313037,492.3010335939622,39.04717129815197,18.493218030822288,356.19212315563726,AD,Burgwallen-Nieuwe Zijde,12.0,0.16,166.0
134,19384110,Explore Downtown from a Stylish Central Apartment,Centrum-West,52.37633,4.89509,Entire rental unit,2,1.0,198.0,20,5.0,POINT (121489.75524676063 487720.31598345214),20.53523913448024,153.3893781729112,115.78949219666144,1037.551022453794,417.9415758933837,111.14994181819505,77.12797083838565,385.6170791812392,AD,Burgwallen-Nieuwe Zijde,12.0,0.16,166.0
135,24627184,★ Just For You ★ 5m Walk Damsquare,Centrum-West,52.3757,4.89724,Entire serviced apartment,4,2.0,666.0,83,4.8,POINT (121635.68277325605 487649.2282029602),29.953504930150988,166.94834860065905,63.69170975347594,1013.3936257250656,318.1390290435778,259.0249868520727,142.9240687313971,422.1923990550276,AD,Burgwallen-Nieuwe Zijde,12.0,0.16,166.0
136,31944927,Bed in 4 Bed Dorm Ensuite,Centrum-West,52.37674,4.89624,Room in hostel,1,1.0,58.0,22,4.55,POINT (121568.37204138056 487765.40274667734),45.80358214640026,213.23037212750629,70.58483931159479,953.6020954267028,330.34200473692914,199.40179303268792,125.86584623933962,464.44602443521615,AD,Burgwallen-Nieuwe Zijde,12.0,0.16,166.0
137,31944954,Private Double Ensuite,Centrum-West,52.37674,4.89624,Room in hostel,2,1.0,177.0,12,4.17,POINT (121568.37204138056 487765.40274667734),45.80358214640026,213.23037212750629,70.58483931159479,953.6020954267028,330.34200473692914,199.40179303268792,125.86584623933962,464.44602443521615,AD,Burgwallen-Nieuwe Zijde,12.0,0.16,166.0
138,31945032,Bed in 6 Bed Dorm Ensuite,Centrum-West,52.37674,4.89624,Room in hostel,1,1.0,54.0,32,4.56,POINT (121568.37204138056 487765.40274667734),45.80358214640026,213.23037212750629,70.58483931159479,953.6020954267028,330.34200473692914,199.40179303268792,125.86584623933962,464.44602443521615,AD,Burgwallen-Nieuwe Zijde,12.0,0.16,166.0
139,40367212,City Centre Amsterdam Juliana Apartment > 70m3,Centrum-West,52.37597,4.89632,Entire rental unit,4,2.0,380.0,2,5.0,POINT (121573.23917002104 487679.6932049705),4.152665542006338,139.90486917759722,40.06712773204284,1020.6074577992912,355.222266301491,192.9214093173969,136.70520131340294,398.97569512014894,AD,Burgwallen-Nieuwe Zijde,12.0,0.16,166.0
140,40626325,City Center Amsterdam Maxima Penthouse  >110 m3,Centrum-West,52.3765,4.89715,Entire rental unit,4,4.0,456.0,15,4.87,POINT (121630.15615873164 487738.2801759874),6.759033776921342,221.09954469457657,42.21335445688413,940.3444390502186,279.24070414480656,252.47264862318863,179.771853258104,480.5433702841832,AD,Burgwallen-Nieuwe Zijde,12.0,0.16,166.0
141,44695126,Yucca Studio,Centrum-West,52.37783,4.89633,Private room in rental unit,2,,113.0,31,4.81,POINT (121575.32189262565 487886.6381084748),12.694846161204609,330.78871466653,78.17155401219362,855.293158134503,312.99778377238334,271.4958051183646,117.18425007296406,572.6511624764405,AD,Burgwallen-Nieuwe Zijde,12.0,0.16,166.0
142,44733441,Daisy Studio,Centrum-West,52.37792,4.89669,Private room in rental unit,2,,109.0,6,4.17,POINT (121599.90257201761 487896.485817777),16.04290711210316,347.2644481324848,82.74831251391592,831.7040714723518,286.5179569427548,296.1350330104478,143.65908462833505,592.9481022045692,AD,Burgwallen-Nieuwe Zijde,12.0,0.16,166.0
143,45891001,ALEXANDER PENTHOUSE,Centrum-West,52.37602,4.897,Entire rental unit,4,2.0,399.0,1,5.0,POINT (121619.58088918655 487684.94293368305),27.4887003346249,174.95005512125752,24.90704626479312,991.0342075352564,311.9320784493724,238.7920999096746,163.5432947503703,434.4283213356016,AD,Burgwallen-Nieuwe Zijde,12.0,0.16,166.0
144,49375834,Singel Hotel Amsterdam: Economy Double Room,Centrum-West,52.37676,4.89456,Room in boutique hotel,2,1.0,150.0,125,4.67,POINT (121453.9908282996 487768.4043455222),25.26509557366556,204.74490686083703,163.40736637667337,1024.3272573040751,442.0145898569098,102.08401277136628,73.55340326057947,415.32768874864325,AD,Burgwallen-Nieuwe Zijde,12.0,0.16,166.0
145,49473775,Singel Hotel Amsterdam: Triple Room Canal View,Centrum-West,52.37678,4.89456,Room in boutique hotel,3,3.0,222.0,158,4.68,POINT (121454.00595555906 487770.6296088186),27.32268029732962,206.9323607120161,164.27297130203172,1022.670809398555,441.6437320481015,103.66456870768366,71.364390823953,417.4247615024401,AD,Burgwallen-Nieuwe Zijde,12.0,0.16,166.0
146,51876728,Spaciuos & light double bedroom 5min to Dam sqaure,Centrum-West,52.37709,4.89581,Private room in rental unit,2,1.0,118.0,62,4.48,POINT (121539.3560798816 487804.54331101035),47.67887154212901,242.6000418890437,119.16155540103198,940.9887521642206,352.58798245601105,191.3785910147932,80.42761268739504,483.2495439283781,AD,Burgwallen-Nieuwe Zijde,12.0,0.16,166.0
147,52848782,Hip Dutch city house in city center,Centrum-West,52.3763,4.89468,Entire home,4,3.0,568.0,37,5.0,POINT (121461.8141497547 487717.16775133007),7.535827930000785,152.94053957892675,143.21944695879262,1057.763674987904,445.6397599996565,83.21860633984375,49.4173942631651,370.6847948914773,AD,Burgwallen-Nieuwe Zijde,12.0,0.16,166.0
148,600604283578282532,Cozy Double Bedroom 5min Dam square w Private Bath,Centrum-West,52.37777,4.89784,Private room in condo,2,1.0,117.0,24,4.08,POINT (121678.0948164628 487879.26694143156),44.850672191790906,364.3813088617245,154.5832325899414,796.8514831260763,215.61431561271627,282.4216968701336,160.7357037111644,620.6088396559835,AD,Burgwallen-Nieuwe Zijde,12.0,0.16,166.0
149,641058574307869532,City centrum private studio 14,Centrum-West,52.37664,4.89551,Entire condo,2,1.0,125.0,45,4.4,POINT (121518.58861588236 487754.61344005365),16.35098177268527,189.7859670378484,99.32343565255276,992.7518947714076,381.27624624507945,149.10258340336932,100.09971272832291,429.4522725979844,AD,Burgwallen-Nieuwe Zijde,12.0,0.16,166.0
150,643339204217552012,Monument in the heart of historical centre,Centrum-West,52.37646,4.89434,Entire home,3,2.0,350.0,3,5.0,POINT (121438.78335284736 487735.1272570692),24.41396824250928,175.94973772474518,168.4710742403412,1047.9682292033262,463.4202404164894,69.18441288023497,41.30398996954992,378.86975204303576,AD,Burgwallen-Nieuwe Zijde,12.0,0.16,166.0
151,651899123459009528,Amazing Private studio 2 min from central station,Centrum-West,52.37636,4.89695,Entire condo,2,1.0,150.0,4,4.0,POINT (121616.43209491893 487722.79544262914),27.436735738689084,200.42760374828052,21.62643033860824,960.811838843436,297.8178833062884,236.75725265446025,183.4016847591448,459.8529889022444,AD,Burgwallen-Nieuwe Zijde,12.0,0.16,166.0
152,656899743321745511,Central B&B Apartment in Amsterdam,Centrum-West,52.3762843,4.8938122,Entire condo,4,2.0,149.0,8,4.5,POINT (121402.71051767998 487715.82287817734),19.83599879758773,172.81296623871586,202.0876871211052,1015.641837947293,503.0424493018856,28.703054975803703,18.97140215479125,349.6993643719385,AD,Burgwallen-Nieuwe Zijde,12.0,0.16,166.0
153,732472136455332423,Ideal appartment city center,Centrum-West,52.3775726,4.8962543,Entire rental unit,3,1.0,180.0,0,,POINT (121569.97335513518 487858.03387850034),6.375985854395434,301.7776781368717,103.81231280479363,880.3745000410538,320.66155893762993,248.2477030702851,103.91296066053192,544.8555382132349,AD,Burgwallen-Nieuwe Zijde,12.0,0.16,166.0
154,1603794,"urban city apartment, Amsterdam",Centrum-West,52.37633,4.89259,Entire rental unit,2,,170.0,70,4.97,POINT (121319.52104066 487721.47491791996),19.57751041334161,230.42245500010893,285.46390179361657,932.8380838601436,582.8344316196059,57.17200988226356,35.54207861812928,343.4800307555286,AD,Burgwallen-Nieuwe Zijde,12.0,0.16,166.0
155,2480621,Downtown Double -  Amsterdam city centre,Centrum-West,52.37674,4.89224,Private room in condo,2,1.0,95.0,189,4.85,POINT (121295.99982323287 487767.2555259448),58.74614076714936,279.16675439096485,306.7538103753577,901.9734049277675,598.5974588199235,108.6414988665373,47.91253943001829,389.5092716278597,AD,Burgwallen-Nieuwe Zijde,12.0,0.16,166.0
156,3088648,Private room in the center,Centrum-West,52.37598,4.8931,Private room in rental unit,3,1.0,205.0,276,4.95,POINT (121353.98330571977 487682.2959192598),19.70956521412996,178.68230806362564,251.51730525533824,974.6264618681432,558.919599950042,14.423907162816816,27.391939731087312,307.09599143921406,AD,Burgwallen-Nieuwe Zijde,12.0,0.16,166.0
157,9343414,Unique studio Amsterdam centre,Centrum-West,52.37655,4.89249,Private room in loft,4,2.0,109.0,127,4.58,POINT (121312.87877188576 487745.9992887612),37.86775497818796,252.17224845962977,294.51776700091324,921.9492771923362,584.8925268947519,82.19796826819284,28.11272753511428,367.9234270542618,AD,Burgwallen-Nieuwe Zijde,12.0,0.16,166.0
158,11859556,Suite with separate entrance in the center city!,Centrum-West,52.37617,4.89228,Private room in guesthouse,2,1.0,85.0,295,4.57,POINT (121298.29042314959 487703.8169333744),7.565154345067089,235.9153977778344,306.20629984629187,915.5894583321996,607.3549421801333,57.79114783181791,62.71471452439067,326.0326357685788,AD,Burgwallen-Nieuwe Zijde,12.0,0.16,166.0
159,818085,La Vie En Rose B&B Amsterdam Centrum Suite 2,Centrum-West,52.3767,4.8919,Private room in bed and breakfast,3,3.0,166.0,349,4.8,POINT (121272.81777007531 487762.9631798949),62.40766838464339,292.8903016005754,319.9411659812974,879.6941424224261,622.1314313225474,117.58862561228132,69.1091314563123,386.88116680376186,AD,Burgwallen-Nieuwe Zijde,12.0,0.16,166.0
160,31064558,Downtown Guestroom,Centrum-West,52.37615,4.892,Private room in rental unit,3,2.0,113.0,192,4.83,POINT (121279.20891956612 487701.72191912966),11.63112229368254,250.5665858163709,325.3005491334721,897.4093305660158,626.4236493820088,73.30290795900287,78.19078341034482,325.3097509015429,AD,Burgwallen-Nieuwe Zijde,12.0,0.16,166.0
161,31758630,Luxurious Suite with Canal View in Heart of City,Centrum-West,52.37403,4.88969,Room in bed and breakfast,2,1.0,200.0,137,4.9,POINT (121120.2925785378 487466.92152748693),50.147783976679015,230.03891771156444,137.5386734026185,833.3651622250917,819.5579065541438,303.68795644353617,105.28237310842006,211.34669814753616,AD,Burgwallen-Nieuwe Zijde,12.0,0.16,166.0
162,34750770,Private New Side Loft,Centrum-West,52.37646,4.89361,Private room in loft,4,3.0,322.0,96,4.85,POINT (121389.0751099732 487735.4655726107),41.52735619237603,196.66633078870487,217.5972632422497,998.8412239346028,511.88898687849365,39.34112267870634,42.83280457823796,365.5920733691578,AD,Burgwallen-Nieuwe Zijde,12.0,0.16,166.0
163,38307889,Beautiful City Center Apartment.,Centrum-West,52.37572,4.89169,Entire rental unit,4,2.0,450.0,17,4.94,POINT (121257.77266554159 487654.0230650261),31.13908857903265,248.4247402945516,310.9382667848594,888.4224367714143,659.1984051285272,89.34338984819388,34.70650461071813,281.23876360879734,AD,Burgwallen-Nieuwe Zijde,12.0,0.16,166.0
164,43976314,A'DAM CREW TERRACE,Centrum-West,52.37557,4.89254,Private room in bed and breakfast,2,,120.0,12,4.67,POINT (121315.53916645676 487636.93817664083),36.08670911840103,188.38292632556823,296.80913439446164,948.6601969339844,609.4862694836925,45.095406576346015,64.19613000212206,258.88869019491364,AD,Burgwallen-Nieuwe Zijde,12.0,0.16,166.0
165,49821276,Singel Hotel Amsterdam: Single Room,Centrum-West,52.37669,4.89305,Room in boutique hotel,1,1.0,125.0,64,4.86,POINT (121351.11725753384 487761.3159661789),70.09615733185467,239.15395927570896,259.61278063049406,957.3712705861002,544.7602733100497,71.00875973163798,15.367400346070273,385.2233853603056,AD,Burgwallen-Nieuwe Zijde,12.0,0.16,166.0
166,49869049,Private B&B Two Rooms in Centre+Bikes,Centrum-West,52.37659,4.89244,Private room in bed and breakfast,4,2.0,160.0,13,3.62,POINT (121309.50448968112 487750.47305778135),41.68807405340373,257.72602476085706,298.51144489604644,917.8902898948512,587.5232720646524,87.65455328914135,31.20202735552457,372.4049076062661,AD,Burgwallen-Nieuwe Zijde,12.0,0.16,166.0
167,53495461,Central Apartment next to the Dam,Centrum-West,52.37462,4.89113,Entire rental unit,4,2.0,400.0,6,5.0,POINT (121218.80190023225 487531.8945341055),40.90575698147856,273.87777558866486,206.8335533985937,893.7707753654714,738.7393786856834,187.89275095619703,27.151649244557984,179.8858954592328,AD,Burgwallen-Nieuwe Zijde,12.0,0.16,166.0
168,706427506356200927,center appartement,Centrum-West,52.37505,4.89139,Entire condo,2,2.0,280.0,3,4.0,POINT (121236.83426263274 487579.61650320765),30.663664877570284,253.91271047774632,257.7774852161615,892.1070164291809,703.3507520900406,141.76618028001369,26.12212628527036,215.12641403731195,AD,Burgwallen-Nieuwe Zijde,12.0,0.16,166.0
169,21226334,18th Century Groundfloor Canal House with patio,Centrum-West,52.37601,4.89144,Entire rental unit,4,2.0,685.0,77,4.94,POINT (121240.96974675948 487686.40579940134),19.719693945758035,276.5957594955748,302.901811548262,863.7694928985715,667.133959015721,105.78883078655431,59.61351866763802,316.4202204186255,AD,Burgwallen-Nieuwe Zijde,12.0,0.16,166.0
170,189754,Metropolitan B&B centre Amsterdam,Centrum-West,52.37548,4.89398,Entire loft,4,3.0,220.0,272,4.79,POINT (121413.52759398952 487626.2561554222),11.398881460495875,97.12754696512562,206.4746416321163,1045.9326778158131,522.420818694405,77.77421234219348,13.206388798376729,268.12228304832894,AD,Burgwallen-Nieuwe Zijde,12.0,0.16,166.0
171,462341,Central 17th Century Unique House,Centrum-West,52.3739,4.89263,Entire home,2,2.0,228.0,38,4.97,POINT (121320.39964411821 487451.0869635348),35.18961746921132,205.7411027967732,189.0665034230388,1019.697144755544,630.9709933835602,220.93243952559743,95.3591918342473,73.49525103641923,AD,Burgwallen-Nieuwe Zijde,12.0,0.16,166.0
172,8591687,Buenas Noches - The Haven,Centrum-West,52.37568,4.89425,Private room in bed and breakfast,2,1.0,79.0,426,4.83,POINT (121432.06460761226 487648.3836857318),40.2612466844117,100.20730321780188,181.413384973254,1058.3997005118745,496.6078937419711,70.40162366506382,35.760571002999434,295.7484577789764,AD,Burgwallen-Nieuwe Zijde,12.0,0.16,166.0
173,10287267,Amsterdam Downtown with rooftop,Centrum-West,52.37613,4.89479,Private room in loft,4,2.0,105.0,105,4.56,POINT (121469.17593917501 487698.2021145651),3.656350198153828,132.98343596506282,135.4782221478878,1067.689518267179,444.2617307321303,88.09442155422424,54.27595421118495,356.6006825484803,AD,Burgwallen-Nieuwe Zijde,12.0,0.16,166.0
174,15404775,City centre Amsterdam studio apartment with view to canal,Centrum-West,52.37456,4.89188,Private room in home,2,1.0,175.0,184,4.49,POINT (121269.82849584433 487524.8694125247),15.892227234493095,224.57480563732577,221.2284503815176,943.3035665973682,695.8509435607957,164.220634570296,6.395146758169901,152.75443705579326,AD,Burgwallen-Nieuwe Zijde,12.0,0.16,166.0
175,18576284,"Luxe room, private garden, Amsterdam city center",Centrum-West,52.37387,4.8934,Private room in rental unit,4,,220.0,239,4.88,POINT (121372.81190653457 487447.3915081753),18.833590437944864,167.69898598988965,139.93526150149705,1068.977894082116,583.140862568343,224.8462016621424,135.24886297170815,92.17522894275696,AD,Burgwallen-Nieuwe Zijde,12.0,0.16,166.0
176,20672438,Stylish apt. at perfect central location,Centrum-West,52.37596,4.89541,Entire rental unit,4,2.0,178.0,15,4.57,POINT (121511.26585709598 487679.0006959087),24.44146196395833,113.99303904590988,96.72307757946083,1056.989776431024,411.73394075099645,131.4060696502854,98.83684545038015,360.8815162934405,AD,Burgwallen-Nieuwe Zijde,12.0,0.16,166.0
177,987355,Nice Room in Centre Amsterdam,Centrum-West,52.37486,4.89338,Shared room in rental unit,2,2.0,89.0,356,4.55,POINT (121372.20053827335 487557.55125927157),64.56217709344409,118.60046475999688,215.62505402563508,1026.79800747048,590.0353512851777,116.12503784489311,47.11147094388574,189.28782135416003,AD,Burgwallen-Nieuwe Zijde,12.0,0.16,166.0
178,21859606,Apartment with terrace in quiet street in Centre!,Centrum-West,52.37273,4.89294,Private room in rental unit,2,1.0,202.0,69,4.93,POINT (121340.62200684314 487320.76514507906),32.37229463025759,152.82871388484693,166.64504186300186,1097.071108699206,563.0238993272325,337.94382236079946,152.11231425739493,64.01937042160237,AD,Burgwallen-Nieuwe Zijde,12.0,0.16,166.0
179,23312970,"City-center, Cozy, Loft Space in Historic Building",Centrum-West,52.37414,4.89404,Entire loft,3,3.0,260.0,207,4.94,POINT (121416.5987106289 487477.1357738474),14.385209093293192,116.24836069026011,124.68057228338624,1097.0722526910104,561.7124956089095,206.0738207216557,131.1453148462003,144.01948507553476,AD,Burgwallen-Nieuwe Zijde,12.0,0.16,166.0
180,25162622,Amazing & cozy room in City Centre @ Dam Square,Centrum-West,52.37429,4.89219,Private room in rental unit,2,1.0,99.0,263,4.91,POINT (121290.73318017022 487494.68413918087),0.621494276453379,212.3626760475052,208.56931006472703,974.644598452532,677.8673037245584,184.24612693643172,42.67828280734161,118.55067079343254,AD,Burgwallen-Nieuwe Zijde,12.0,0.16,166.0
181,28757751,Unique New Place In A Historical Building Downtown,Centrum-West,52.3743,4.89216,Private room in rental unit,2,1.0,151.0,344,4.95,POINT (121288.69787628739 487495.81072470447),1.705746142361007,213.90050548789372,208.1446894245556,972.3254901242676,680.1934628050506,183.7904600820221,40.54672858987953,120.0384650127619,AD,Burgwallen-Nieuwe Zijde,12.0,0.16,166.0
182,37428000,"Central, spacious app. OrangeBnB",Centrum-West,52.37325,4.89252,Entire rental unit,6,5.0,249.0,48,4.65,POINT (121312.41526770822 487378.8170888973),56.79171237566764,166.49701810014332,161.40243210919326,1044.2816320135803,608.4988221590306,293.6415659324481,156.9871153415106,0.832290283784306,AD,Burgwallen-Nieuwe Zijde,12.0,0.16,166.0
183,40368512,City Center Amsterdam Princess Apartment > 80 m3,Centrum-West,52.37553,4.89528,Entire rental unit,4,2.0,380.0,11,4.82,POINT (121502.08884536731 487631.21762380964),24.800906377575807,65.33818945821596,126.07859151434477,1100.9973695089393,440.7380227063528,137.69696096174073,82.17623940133795,316.5272825911634,AD,Burgwallen-Nieuwe Zijde,12.0,0.16,166.0
184,43672128,Private Lovely Room Amsterdam Central,Centrum-West,52.37491,4.89311,Private room in rental unit,2,1.0,141.0,50,4.5,POINT (121353.85256416476 487563.239733679),47.28257445056136,136.6269749349691,231.1159513557068,1007.6023377282066,603.5738540725463,107.66058228230504,44.82722621668791,189.82643485352864,AD,Burgwallen-Nieuwe Zijde,12.0,0.16,166.0
185,43672517,Private Room with Smokey Area Amsterdam Central,Centrum-West,52.37478,4.89426,Private room in rental unit,2,1.0,150.0,48,4.35,POINT (121432.06442040473 487548.24223885033),68.3753926745486,61.28353842324992,179.04075606201246,1086.4149149370178,543.1967370018946,149.82783517923892,67.57770945834423,208.22603476817787,AD,Burgwallen-Nieuwe Zijde,12.0,0.16,166.0
186,43962103,PRIVATE ROOM WITH PRIVATE BATHROOM,Centrum-West,52.37503,4.89242,Private room in bed and breakfast,2,,100.0,5,4.8,POINT (121306.95757862242 487576.9118769878),18.87468376361645,183.7436036063637,272.2416546069568,958.8335131938634,639.8536829081488,101.3149209675998,64.60085037040294,198.9066955547567,AD,Burgwallen-Nieuwe Zijde,12.0,0.16,166.0
187,725173925138392538,Modern apartment with balcony in Amsterdam center,Centrum-West,52.37425,4.89143,Entire rental unit,3,2.0,400.0,4,4.5,POINT (121238.94916103286 487490.58739336603),13.891911163182142,240.57170718867448,176.2393867417441,929.2184202526591,721.4631972752394,209.20176573758792,45.5015245231299,134.18535296280697,AD,Burgwallen-Nieuwe Zijde,12.0,0.16,166.0
188,21019335,★ AMAZING PRIVATE CANAL APARTMENT ★ A++ LOCATION ★,Centrum-West,52.37447,4.89204,Private room in guesthouse,2,1.0,137.0,184,4.7,POINT (121280.65549871154 487514.78127732436),19.8815495971852,216.15856284358912,218.5335625640275,957.252793035625,690.9104643283174,168.78169315442986,21.116504416295072,140.27355958577365,AD,Burgwallen-Nieuwe Zijde,12.0,0.16,166.0
189,21747088,"Clean, central apartment with fast wifi (250mbps)",Centrum-West,52.37561,4.89386,Entire rental unit,3,2.0,240.0,31,4.84,POINT (121405.45466150533 487640.7759831532),23.495491001622185,112.58008878458764,209.07256756849927,1034.4293870986053,524.1014520633339,61.22395314483365,29.819543837989503,278.8087789791917,AD,Burgwallen-Nieuwe Zijde,12.0,0.16,166.0
190,17678275,Apartment at the canals in Amsterdam,Centrum-Oost,52.36547,4.88371,Entire rental unit,3,1.0,260.0,44,4.93,POINT (120706.45464167232 486517.3232830294),59.1155120838475,85.69128134038068,104.11217201374102,332.514490721326,734.029752445027,222.85704027721584,315.4248092741143,1052.4014667028569,AH,De Weteringschans,26.0,5.01,97.0
191,35864556,Cozy private apartment in Leidseplein,Centrum-Oost,52.36489,4.88376,Entire rental unit,4,2.0,330.0,17,4.88,POINT (120709.41188270313 486452.7671873511),29.33583306877321,39.68681396721664,47.38806165402235,295.2833172566713,686.0560688358963,211.8643989662767,260.0892995472459,1104.2043942964171,AH,De Weteringschans,26.0,5.01,97.0
192,38835232,Cozy dormer room in the old center,Centrum-Oost,52.36523,4.88197,Private room in rental unit,2,1.0,77.0,144,4.6,POINT (120587.75654742189 486491.4449575652),47.36232539555887,99.61641156360471,117.0523106435256,235.5709582513098,802.8329407613735,104.22105193066648,371.8125471280591,1144.818172650597,AH,De Weteringschans,26.0,5.01,97.0
193,44498237,Very nice appartment 4 person private city center 1,Centrum-Oost,52.36517,4.88242,Entire rental unit,4,3.0,286.0,122,4.2,POINT (120618.35985521557 486484.55561758846),15.993210077832916,70.76289542370928,90.14625848829772,247.95417174447573,774.9784614530897,128.86823517035498,344.6243415389073,1131.140900592634,AH,De Weteringschans,26.0,5.01,97.0
194,643427846937229220,Beautiful appartement in the heart of Amsterdam,Centrum-Oost,52.36569,4.88187,Entire condo,2,1.0,230.0,2,5.0,POINT (120581.30234395122 486542.6733391836),68.62597593142274,138.13303780875594,158.58557423490757,277.2876615820674,841.1740313550904,133.4273458065666,411.93913268217534,1109.8602207293325,AH,De Weteringschans,26.0,5.01,97.0
195,664359429386875861,5* center jacuzzi suite Loft // smarthome +++,Centrum-Oost,52.3653959,4.8817661,Entire condo,2,1.0,292.0,19,4.68,POINT (120573.99751088978 486510.00029223005),66.57800788775896,121.40486202176868,139.57594801357422,244.78911951537785,825.2758626388844,104.37683610495613,384.8579909193057,1139.373211251705,AH,De Weteringschans,26.0,5.01,97.0
196,685898988876098911,5* Luxury Loft // Super & central // smarthome,Centrum-Oost,52.36594,4.88291,Entire loft,2,1.0,294.0,4,4.75,POINT (120652.33026303395 486569.99565490306),55.13377782788511,132.76579327561845,155.04422140792383,336.7347942327284,809.4712675250777,202.78091150734323,388.8008300199341,1043.1369840951947,AH,De Weteringschans,26.0,5.01,97.0
197,728805594985487486,Cozy courtyard room in the old center,Centrum-Oost,52.365231,4.881967,Private room in rental unit,2,1.0,77.0,10,4.9,POINT (120587.5529910362 486491.5576448236),47.58562846022679,99.8487648893313,117.28112709008336,235.55684092537,803.0616518771548,104.10334091093398,371.97562924844897,1144.8597048815943,AH,De Weteringschans,26.0,5.01,97.0
198,762059613728755322,Cozy courtyard room in the old center,Centrum-Oost,52.36528329999999,4.8819884,Private room in rental unit,2,1.0,77.0,0,,POINT (120589.05112379021 486497.36652906344),47.77874710856724,101.81119275923751,119.93357215106538,241.2706610262262,805.6233147475907,108.43930715309126,374.7929842484413,1139.416787050162,AH,De Weteringschans,26.0,5.01,97.0
199,762063340023678057,Cozy dormer room in the old center,Centrum-Oost,52.36528329999999,4.8819884,Private room in rental unit,2,1.0,80.0,0,,POINT (120589.05112379021 486497.36652906344),47.77874710856724,101.81119275923751,119.93357215106538,241.2706610262262,805.6233147475907,108.43930715309126,374.7929842484413,1139.416787050162,AH,De Weteringschans,26.0,5.01,97.0
200,766046942861626607,Cozy two bedroom loft in the old center,Centrum-Oost,52.36528329999999,4.8819884,Private room in rental unit,4,2.0,152.0,0,,POINT (120589.05112379021 486497.36652906344),47.77874710856724,101.81119275923751,119.93357215106538,241.2706610262262,805.6233147475907,108.43930715309126,374.7929842484413,1139.416787050162,AH,De Weteringschans,26.0,5.01,97.0
201,1734564,BEAUTIFUL CITYCENTRE LOFT ON CANAL,Centrum-West,52.37318,4.88886,Entire loft,2,1.0,248.0,73,4.82,POINT (121063.12157201208 487372.73627547483),53.00193419628005,185.03221019555647,101.6073373084061,835.913752788196,844.3225620523797,321.24176390676183,215.42590987794165,248.98644249253087,AD,Burgwallen-Nieuwe Zijde,12.0,0.16,166.0
202,13253498,CITY CENTER! Large duplex apartment.,Centrum-West,52.37067,4.88919,Entire rental unit,5,2.0,443.0,60,4.77,POINT (121083.67496933455 487093.3116247336),16.333938546812785,199.5243262560951,252.0958831277497,1014.074940449588,799.3021119246479,237.13523277507664,36.72731586234519,365.0121433047451,AD,Burgwallen-Nieuwe Zijde,12.0,0.16,166.0
203,30356862,Sanitized! AirCon Penthouse w/view on Royal Palace,Centrum-West,52.37318,4.88985,Entire rental unit,5,2.0,356.0,36,4.69,POINT (121130.5390870829 487372.27314095356),45.28478695567294,140.3460093144122,46.30572970532198,891.3574603192789,779.1398501774612,367.72980062931134,188.7137007637435,181.607198194858,AD,Burgwallen-Nieuwe Zijde,12.0,0.16,166.0
204,41910011,"Hotel Estheréa, Single Room",Centrum-West,52.37054,4.88865,Room in hotel,2,1.0,303.0,4,5.0,POINT (121046.80019587559 487079.1002866797),20.74543851141716,234.01077102847125,241.4525408668964,980.4347997759386,837.3068605397475,263.1616865034775,57.315421511584674,399.6626559996759,AD,Burgwallen-Nieuwe Zijde,12.0,0.16,166.0
205,41912003,"Hotel Estheréa, Deluxe Canal View Room",Centrum-West,52.37054,4.88865,Room in hotel,2,1.0,368.0,0,,POINT (121046.80019587559 487079.1002866797),20.74543851141716,234.01077102847125,241.4525408668964,980.4347997759386,837.3068605397475,263.1616865034775,57.315421511584674,399.6626559996759,AD,Burgwallen-Nieuwe Zijde,12.0,0.16,166.0
206,44568529,Sit & Relax canalview apartment central Amsterdam,Centrum-West,52.37169,4.88839,Entire rental unit,2,1.0,350.0,37,4.97,POINT (121029.9742128481 487207.1745677654),74.58437654607685,179.70107683079002,179.974464342302,920.1896580116172,851.5293533592896,345.32272814038083,90.21389165850546,329.79912109789814,AD,Burgwallen-Nieuwe Zijde,12.0,0.16,166.0
207,45588996,16th century entire appartement center Amsterdam,Centrum-West,52.36873,4.88857,Entire condo,2,1.0,350.0,2,5.0,POINT (121039.96639243868 486877.7518118348),11.902020950580049,135.1820272659444,301.21831371277415,822.8981864614319,886.3537587440615,252.8546565937848,253.6780820221652,569.4939558432369,AD,Burgwallen-Nieuwe Zijde,12.0,0.16,166.0
208,48220980,Romantic Loft apartment with canal view,Centrum-West,52.36869,4.88795,Private room in bed and breakfast,3,2.0,225.0,72,4.61,POINT (120997.71042940879 486873.59199686034),41.616181590559016,170.5306676849635,272.59405354500615,790.6896948516917,917.4919397874496,294.4258361967305,266.8451843500801,594.3748830389845,AD,Burgwallen-Nieuwe Zijde,12.0,0.16,166.0
209,51223482,City center apt of 90sqm in monumental building,Centrum-West,52.37057,4.88881,Entire condo,4,3.0,350.0,17,4.88,POINT (121057.71955897287 487082.36322900804),29.57204016047928,224.3416105280318,252.5358907415228,989.59658364177,826.1263397442228,255.120227742323,49.73416828407058,390.02150457152857,AD,Burgwallen-Nieuwe Zijde,12.0,0.16,166.0
210,52630801,Cosy and luxurious room with canal view,Centrum-West,52.37265,4.89006,Private room in bed and breakfast,2,1.0,187.0,28,4.79,POINT (121144.43524821196 487313.20560502924),24.93556078284009,84.8716752419123,24.79072373252344,936.6894824083938,751.5481820659494,360.3111979413011,196.8588702109268,179.72891950170845,AD,Burgwallen-Nieuwe Zijde,12.0,0.16,166.0
211,53072580,Contemporary Large room Downtown,Centrum-West,52.36909484863281,4.888916969299316,Private room in condo,2,1.0,150.0,34,4.94,POINT (121063.87595632918 486918.1834181712),15.451485584856696,144.74429763366314,298.05650087596484,868.5325378711387,851.3696062626809,219.63454340414347,211.10913342403663,522.5566304809901,AD,Burgwallen-Nieuwe Zijde,12.0,0.16,166.0
212,599738674176966246,Modern Spacious room Downtown,Centrum-West,52.36909484863281,4.888916969299316,Private room in condo,2,1.0,148.0,36,4.94,POINT (121063.87595632918 486918.1834181712),15.451485584856696,144.74429763366314,298.05650087596484,868.5325378711387,851.3696062626809,219.63454340414347,211.10913342403663,522.5566304809901,AD,Burgwallen-Nieuwe Zijde,12.0,0.16,166.0
213,663718460156759717,Romantic home in the heart of Amsterdam,Centrum-West,52.37315,4.88988,Entire rental unit,2,1.0,191.0,2,4.0,POINT (121132.55913621018 487368.9212294861),42.333772924082616,136.43255835253208,42.40327003544714,894.9027989273702,776.2874673128829,369.2852378390138,191.4680589003881,179.72756681676665,AD,Burgwallen-Nieuwe Zijde,12.0,0.16,166.0
214,782254,Beautiful apt in city center for FAMILIES ONLY,Centrum-West,52.37142,4.89036,Entire rental unit,4,3.0,399.0,57,4.66,POINT (121163.92681401159 487176.2119778107),51.10000007340641,86.17981271280196,158.3663207755016,1038.2921288822326,716.4511375117037,231.13089911055528,100.68409727791764,250.36614729425185,AD,Burgwallen-Nieuwe Zijde,12.0,0.16,166.0
215,13527219,Bright and Spacious Canal District Apartment,Centrum-West,52.37032,4.89104,Entire rental unit,2,1.0,400.0,17,5.0,POINT (121209.3977246907 487053.5054096151),35.28503057986584,199.1633001144212,285.73323808185324,1067.0061519273422,679.1903925695087,109.14827460055824,154.15090527477025,340.3959760493186,AD,Burgwallen-Nieuwe Zijde,12.0,0.16,166.0
216,15033074,Nice studio in the heart of Amsterdam,Centrum-West,52.37028,4.89022,Private room in bed and breakfast,3,2.0,280.0,121,4.77,POINT (121153.52282844718 487049.43753102346),65.93566203124598,209.2925464945613,285.02345750007714,1025.5963518805447,735.0275676691012,155.17094642813134,111.78623276685023,364.85577369706897,AD,Burgwallen-Nieuwe Zijde,12.0,0.16,166.0
217,16249620,Cozy  private studio in the citycenter!,Centrum-West,52.36968,4.8917,Private room in rental unit,2,1.0,111.0,250,4.62,POINT (121253.85877917323 486981.9895751191),54.23508166308876,203.64474442841737,277.16601703197307,1050.3813820968328,651.1287344948978,36.049214186389854,198.34760562898825,400.31315634011446,AD,Burgwallen-Nieuwe Zijde,12.0,0.16,166.0
218,17871313,Bright and Warm - 100m from Dam Square,Centrum-West,52.37236,4.89268,Entire rental unit,2,2.0,215.0,16,4.83,POINT (121322.63529874786 487279.7186022464),42.41759490217251,121.8518811699079,174.21704480269588,1102.8733641347712,570.2749007422117,295.1042870688172,109.05977340738578,98.90812445662924,AD,Burgwallen-Nieuwe Zijde,12.0,0.16,166.0
219,23460493,Large private room next to Dam square in Amsterdam,Centrum-West,52.37114,4.89261,Private room in rental unit,2,1.0,100.0,65,4.95,POINT (121316.94193042364 487144.0102276465),58.31138466384565,156.78504238800613,248.5333375937296,1088.790919409859,563.4774298414253,159.61046313448918,27.152114822557323,234.09576279435453,AD,Burgwallen-Nieuwe Zijde,12.0,0.16,166.0
220,35104980,J+R Fabulous Apartment in the Heart of Amsterdam,Centrum-West,52.37264,4.89288,Entire rental unit,4,2.0,466.0,24,4.79,POINT (121336.46775147339 487310.77933811187),29.15092794637481,144.82956572338205,174.30314015852235,1098.5080865275495,564.2555942949513,327.50107779704814,141.57284098741837,71.57117096132914,AD,Burgwallen-Nieuwe Zijde,12.0,0.16,166.0
221,46346561,Spui's the Limit,Centrum-West,52.37043,4.8902,Private room in rental unit,2,1.0,95.0,6,3.33,POINT (121152.27522305105 487066.1363198484),63.35607749131376,193.45410700234103,268.34632898330096,1037.1469315016084,733.9400235555771,163.80958555195315,99.61657007071688,350.45848617182435,AD,Burgwallen-Nieuwe Zijde,12.0,0.16,166.0
222,644499716309903785,New Central Design House,Centrum-West,52.37035,4.89236,Entire home,5,3.0,411.0,19,4.89,POINT (121299.31634783492 487056.22866891336),47.40563956761388,218.3430792412694,307.43195350833133,1064.0581003647128,590.066503374792,70.45287912768627,115.70772481436067,322.0755736537636,AD,Burgwallen-Nieuwe Zijde,12.0,0.16,166.0
223,676126445960079096,✨SUNNY & BRIGHT APARTMENT IN THE HEART OF THE CITY,Centrum-West,52.37143,4.89231,Entire condo,4,2.0,337.0,4,4.75,POINT (121296.73177526935 487176.415977461),35.62762433899074,120.13026278720103,210.7845751693428,1122.5381992438895,583.6938410764128,190.52039587048932,18.09074536671222,202.2221678295448,AD,Burgwallen-Nieuwe Zijde,12.0,0.16,166.0
224,28871,Comfortable double room,Centrum-West,52.36775,4.89092,Private room in rental unit,2,1.0,75.0,454,4.88,POINT (121199.267262148 486767.61554949754),30.732054173128333,58.74011878416331,256.4345279563139,877.5955090881894,785.8718265169788,206.05415157203524,332.7407550281088,620.758833982017,AD,Burgwallen-Nieuwe Zijde,12.0,0.16,166.0
225,4727758,Top of the City on super location with canal view!,Centrum-West,52.36792,4.89041,Private room in guest suite,4,2.0,145.0,225,4.83,POINT (121164.66242825887 486786.7682249533),9.989638319800996,21.0014702359462,290.00795714436805,859.5655622005937,807.004742873335,205.79082644583303,353.78209693055413,609.3683350043449,AD,Burgwallen-Nieuwe Zijde,12.0,0.16,166.0
226,16175728,City View B&B Best location in Town!,Centrum-West,52.36804,4.89098,Private room in rental unit,4,2.0,145.0,3,5.0,POINT (121203.57459901995 486799.8538204875),4.53162295772457,50.11054092480583,251.2249712886726,899.0047116093573,766.4785974074924,174.92169130283,343.5908048545497,588.2779561728505,AD,Burgwallen-Nieuwe Zijde,12.0,0.16,166.0
227,44038154,Typical Amsterdam Monumental Apartment,Centrum-West,52.36717,4.89353,Entire condo,4,3.0,251.0,4,5.0,POINT (121376.58656689903 486701.8689860313),44.005999439641386,200.7747838668259,118.41664366161598,891.6893019668407,680.7841480725101,107.63709186500884,144.76041481905415,679.2417589992232,AD,Burgwallen-Nieuwe Zijde,12.0,0.16,166.0
228,44352762,Mr. Monkey - Triple Bunk Room,Centrum-West,52.36839,4.88976,Room in boutique hotel,3,2.0,534.0,0,,POINT (121120.75208415138 486839.36546200933),57.34301553287448,47.8379412272579,337.384886853226,856.5903653612384,824.3373155182135,198.1112421840448,293.225482956564,571.6389087408809,AD,Burgwallen-Nieuwe Zijde,12.0,0.16,166.0
229,46348181,Rembrandt Studio Two,Centrum-West,52.36729,4.8939,Private room in rental unit,2,1.0,98.0,38,4.45,POINT (121401.87731339931 486715.0489488682),30.91652879123688,191.17560059937216,92.41410775689928,868.1228524349877,653.2472422989437,128.88686109942887,131.61014800332302,669.046294978366,AD,Burgwallen-Nieuwe Zijde,12.0,0.16,166.0
230,636828462217489301,2 Bedroom Apartment in Amsterdam City Centre,Centrum-West,52.36874,4.89023,Entire condo,4,2.0,390.0,7,5.0,POINT (121153.0288773242 486878.0878880601),24.30192539846441,73.4112374874428,313.9553092512769,906.1984978963008,779.8847273546755,149.6105460205672,262.7647419246693,524.6398774798631,AD,Burgwallen-Nieuwe Zijde,12.0,0.16,166.0
231,696830632019349033,Canal view/Flowermarket Artist apt. 2br/2bth,Centrum-West,52.3673531,4.8905181,Entire condo,4,2.0,450.0,0,,POINT (121171.59247614411 486723.64280823595),58.25446059937498,82.98930807649384,290.9338082176628,830.5319534965381,744.233726130911,215.8118489483951,343.5882750217358,669.302403389982,AD,Burgwallen-Nieuwe Zijde,12.0,0.16,166.0
232,8681273,Garden house in historic Sloterdijk,Bos en Lommer,52.38657,4.84589,Entire cabin,4,3.0,200.0,104,4.93,POINT (118148.06224492278 488883.53570138203),267.63350815324515,917.7633406163568,316.4208747276932,850.0662774681441,549.5582370000714,478.4046095286137,618.259541816503,3503.7528157221423,EA,Sloterdijk-West,1.0,22.02,104.0
233,24840523,Berend and Barbara's place,Bos en Lommer,52.38542,4.85731,Entire rental unit,2,1.0,95.0,9,5.0,POINT (118924.57456941353 488749.8366558678),438.8740545111328,883.9536401861587,141.694484192647,421.95723718257614,1172.2337789193048,98.29566868533162,632.865779013376,2753.400600093428,EA,Sloterdijk-West,1.0,22.02,104.0
234,552703006680953442,Luxurious design rental in Amsterdam Westerpark,Bos en Lommer,52.38567,4.85454,Entire rental unit,2,1.0,150.0,3,5.0,POINT (118736.19869890832 488779.0350379592),384.5888160662864,946.257235980888,215.51197713439709,511.1764091585883,1087.5400543741307,130.7828852057483,760.6021195879562,2932.074452864336,EA,Sloterdijk-West,1.0,22.02,104.0
235,739551570360918169,Luxurious sunny apartment with balcony,Bos en Lommer,52.38568,4.84909,Entire condo,4,2.0,300.0,1,5.0,POINT (118365.17564208944 488782.8890203026),171.52967099664946,943.2415371295392,302.05257679060685,670.8104464730301,788.1669041272833,455.47585533148697,857.4893327585955,3264.4689599282024,EA,Sloterdijk-West,1.0,22.02,104.0
236,7895182,"Cosy, comfortable, quiet bedroom",Bos en Lommer,52.37676,4.83955,Private room in rental unit,2,1.0,79.0,88,4.56,POINT (117708.20052525625 487795.2902975967),336.466378711607,1874.415284272588,534.51578246119,134.25315867983502,330.1073376919751,235.0559574258156,1337.5388037453893,3627.772186702211,ED,De Kolenkit,7.0,16.41,95.0
237,10360276,Modern Clean Private Apartment in Amsterdam,Bos en Lommer,52.37625,4.83782,Private room in rental unit,2,1.0,87.0,309,4.69,POINT (117589.96986093195 487739.4379736728),333.2259043384323,1991.2908159812976,665.178974947764,132.56754925809528,375.2331669978248,277.679632345667,1387.2332871300134,3739.428123110397,ED,De Kolenkit,7.0,16.41,95.0
238,44445085,Fully equipped studio for 4 in Amsterdam!,Bos en Lommer,52.37778,4.84349,Entire rental unit,4,2.0,144.0,1,5.0,POINT (117977.33755698611 487906.7581109023),143.80966151441245,1614.4468585920326,243.2198815009668,372.3369126343687,412.6380949249149,98.9044410149222,1267.24209893817,3376.225565248109,ED,De Kolenkit,7.0,16.41,95.0
239,46591985,Cityden | Studio XL | Aparthotel,Bos en Lommer,52.37795,4.84358,Entire serviced apartment,4,2.0,100.0,321,4.74,POINT (117983.60765990631 487925.62681043183),158.23956486190443,1610.4941343720732,230.49248420840985,389.6138419433544,409.0770832508324,94.36691241423004,1257.0744222431244,3373.044618458087,ED,De Kolenkit,7.0,16.41,95.0
240,52882043,Large bright apartment with free sunset & parking.,Bos en Lommer,52.37782,4.83732,Entire rental unit,3,3.0,102.0,3,4.67,POINT (117557.24860407403 487914.378689379),166.75275800337678,2033.0527565506188,643.0674004867082,289.0318987736952,208.7887242406817,121.01591528675232,1212.4598629803031,3792.754215420314,ED,De Kolenkit,7.0,16.41,95.0
241,570029413851129083,Stijlvol ingericht appartement - gratis parkeren,Bos en Lommer,52.37628,4.83803,Entire condo,2,1.0,200.0,6,5.0,POINT (117604.29479991115 487742.6674676818),336.64638398850445,1976.9974476898992,650.7513332988681,123.37408152560286,371.1249873173907,273.04108740837904,1384.1853328749785,3725.4857785108657,ED,De Kolenkit,7.0,16.41,95.0
242,705457561637370647,Quiet one bedroom in Amsterdam West,Bos en Lommer,52.37642423307098,4.8402490094304085,Entire condo,2,1.0,190.0,0,,POINT (117755.51604325211 487757.5724681849),289.6098907738427,1826.0141337595385,508.3308847991622,112.39656267705332,380.7369634234917,288.7900010418577,1380.3157894916014,3576.578559514116,ED,De Kolenkit,7.0,16.41,95.0
243,745407138462879128,Cosy and quiet apartment with balcony in Amsterdam,Bos en Lommer,52.37708,4.84106,Entire condo,2,1.0,149.0,2,5.0,POINT (117811.28893682625 487830.11840605346),238.44412609435747,1773.191383789923,426.0643773785591,203.59893943630385,341.75000103105526,262.75084146386735,1317.0529075608713,3529.6832842731,ED,De Kolenkit,7.0,16.41,95.0
244,2174398,Monumental Cozy Apartment + Garden,Westerpark,52.38995,4.8726,Entire rental unit,2,1.0,150.0,9,4.78,POINT (119969.090851402 489246.35708054557),365.77148990150914,360.1977736070319,401.6535227334125,197.822578522467,1594.1668974405727,369.8452792770887,1301.6162541396257,2300.7993695000137,EB,Spaarndammerbuurt/Zeeheldenbuurt,20.0,33.72,91.0
245,43709001,Eco-friendly Double king bed Room at Westerpark,Westerpark,52.3879,4.87553,Room in boutique hotel,2,1.0,209.0,2,4.0,POINT (120166.93318800618 489016.854889711),272.57708800581406,386.7787333955136,325.1092207824772,94.21190587683824,1868.288934473747,267.3591315613604,1264.3870161348375,1999.1611942502395,EB,Spaarndammerbuurt/Zeeheldenbuurt,20.0,33.72,91.0
246,660816073853225956,Monumental apartment next to Westerpark,Westerpark,52.39019,4.87285,Entire condo,2,1.0,220.0,7,5.0,POINT (119986.29856513152 489272.93944451946),397.43496576744616,391.8256729209411,374.902610900419,185.22544110425528,1600.5804361202274,354.49154009511653,1333.2507599613307,2312.5279668191065,EB,Spaarndammerbuurt/Zeeheldenbuurt,20.0,33.72,91.0
247,13152028,Bright and beautiful family home,Westerpark,52.3918,4.87313,Entire townhouse,4,2.0,199.0,17,4.88,POINT (120006.62966923713 489451.93814404786),384.9757832165889,561.4302743733956,324.9455537949585,274.5526591931062,1566.17068913468,236.2469233381595,1493.428645724625,2450.4375500064634,EB,Spaarndammerbuurt/Zeeheldenbuurt,20.0,33.72,91.0
248,24870809,Luxerious apartment close to Westerpark,Westerpark,52.39189,4.87231,Entire rental unit,2,1.0,125.0,4,5.0,POINT (119950.88356812179 489462.3481566182),441.5122017750288,552.2109445414636,381.4468552205788,317.84910681649825,1509.583265335336,184.87459355917812,1473.579344929822,2489.2905334104644,EB,Spaarndammerbuurt/Zeeheldenbuurt,20.0,33.72,91.0
249,34099666,"Private room in sunny, quiet garden apt (with dog)",Westerpark,52.39185,4.87027,Private room in rental unit,1,1.0,55.0,12,4.92,POINT (119811.98967002472 489458.88631009345),523.4652245912555,525.004154440215,519.5186826718841,422.4889236220935,1376.4440526797555,116.13301253533484,1406.0619612080634,2565.058326234849,EB,Spaarndammerbuurt/Zeeheldenbuurt,20.0,33.72,91.0
250,34137575,"Sunny, spacious, stylish apt with garden & office",Westerpark,52.39266,4.8705,Entire rental unit,2,1.0,120.0,2,5.0,POINT (119828.28836432128 489548.8979474954),523.213211267688,615.7658637789772,517.6684122783246,465.6241657411993,1370.342265530374,36.61467797621673,1494.6319192946055,2629.36611771698,EB,Spaarndammerbuurt/Zeeheldenbuurt,20.0,33.72,91.0
251,35861021,COOL APT  FOR 2/3 | BALCONY | GREAT LOCATION,Westerpark,52.39181,4.87268,Entire rental unit,3,2.0,125.0,7,4.71,POINT (119976.00614794873 489453.2681874727),414.91209515278,551.537944869092,355.565323790394,294.4153309219012,1536.1772871708863,210.2772985310584,1478.5277147587951,2468.0045942598226,EB,Spaarndammerbuurt/Zeeheldenbuurt,20.0,33.72,91.0
252,43740697,Quiet central family apartment with garden,Westerpark,52.39276,4.87639,Entire rental unit,4,3.0,185.0,8,4.88,POINT (120229.29031054332 489557.18165887723),238.07547885164269,445.399805101701,168.5442808493656,153.32826373403773,1763.0062808859686,66.60431143333481,1539.6350668254856,2433.2076975671744,EB,Spaarndammerbuurt/Zeeheldenbuurt,20.0,33.72,91.0
253,632596652995360913,Hidden gem next to the citycenter with green view,Westerpark,52.39218,4.87173,Entire condo,3,2.0,195.0,6,5.0,POINT (119911.63268949617 489494.89522477635),481.1446877915377,573.759521824574,424.8451924888756,368.4406410542917,1463.6286671374555,133.888019845876,1482.9608066371295,2538.045931599051,EB,Spaarndammerbuurt/Zeeheldenbuurt,20.0,33.72,91.0
254,3519739,Apartment next to the park,Westerpark,52.39041,4.87507,Entire rental unit,2,2.0,90.0,16,4.56,POINT (120137.59208163555 489296.3469941229),246.1192521762505,502.4933945736374,230.08464060122063,73.64166039986401,1735.500486241501,256.88580162247285,1444.2141307019565,2249.177715557392,EB,Spaarndammerbuurt/Zeeheldenbuurt,20.0,33.72,91.0
255,3565477,Cute place in popular Westerpark,Westerpark,52.39097,4.8777,Entire rental unit,4,3.0,186.0,66,4.92,POINT (120317.05948871555 489357.39240551373),61.230479536378695,628.1264740549381,66.12064475709751,150.48080545318666,1890.3879223221093,129.18032604239255,1354.598115908015,2215.2650962634475,EB,Spaarndammerbuurt/Zeeheldenbuurt,20.0,33.72,91.0
256,5836620,Cosy big bed in center Amsterdam,Westerpark,52.39091,4.8772,Private room in casa particular,2,1.0,45.0,0,,POINT (120282.97694147748 489350.95603837655),94.85377258709627,637.5203798582891,85.47278692555837,169.31715144865709,1859.1217763027623,140.47228255114788,1380.330108831172,2225.0715185979684,EB,Spaarndammerbuurt/Zeeheldenbuurt,20.0,33.72,91.0
257,8913666,Two bedroom apartment fulfilled with light.,Westerpark,52.39134,4.87707,Entire loft,4,2.0,229.0,21,4.86,POINT (120274.46450414328 489398.86157498305),114.3890492798007,591.0562160606248,60.43145767011456,138.1685676282854,1838.8815684951053,98.6604386732212,1412.7318207603175,2271.528130590736,EB,Spaarndammerbuurt/Zeeheldenbuurt,20.0,33.72,91.0
258,50520756,Cosy Famliy home in a vibrant street of Amsterdam,Westerpark,52.39069,4.87672,Entire condo,4,5.0,310.0,5,5.0,POINT (120250.13031511541 489326.7081793964),129.77502367383585,605.4042723663605,124.61959096893764,129.2906186814547,1834.055085919593,174.31764891005574,1396.5515908064183,2219.13002597652,EB,Spaarndammerbuurt/Zeeheldenbuurt,20.0,33.72,91.0
259,52545324,Lovely bright 3BR apartment with sunny garden,Westerpark,52.39088,4.87775,Entire condo,4,3.0,149.0,9,5.0,POINT (120320.39264170823 489347.3547724774),57.48610271289008,637.9538983305802,75.47847948485223,158.8107601689008,1896.18449911392,139.1929506789544,1346.4806125194243,2204.800731133296,EB,Spaarndammerbuurt/Zeeheldenbuurt,20.0,33.72,91.0
260,52818992,Lovely flat with bedroom close to center,Westerpark,52.390549,4.874134,Entire condo,2,1.0,110.0,4,5.0,POINT (120073.98622402087 489312.26332618913),306.15479884343944,473.26754977010216,278.8106157965854,124.54005174165592,1670.1111949396272,285.0931534837316,1416.9666983856016,2296.421486392836,EB,Spaarndammerbuurt/Zeeheldenbuurt,20.0,33.72,91.0
261,643146865148884150,Beautiful double-grounded house near city centre,Westerpark,52.39085,4.87557,Entire townhouse,4,2.0,520.0,1,5.0,POINT (120171.97373379364 489345.06242566206),205.906387460127,561.5053574476324,176.03393828461506,116.76263890254565,1753.885302912697,197.31295810512864,1473.8289823406783,2273.430991049285,EB,Spaarndammerbuurt/Zeeheldenbuurt,20.0,33.72,91.0
262,698569776400370215,Modern apartment next to Westerpark,Westerpark,52.39074,4.87509,Entire condo,2,1.0,275.0,1,5.0,POINT (120139.21301370859 489333.0542720889),239.20208792877588,530.6156556944072,210.7740444200145,108.00708295132354,1725.9453519862898,226.01952220322752,1473.624152297417,2279.728668610256,EB,Spaarndammerbuurt/Zeeheldenbuurt,20.0,33.72,91.0
263,741910412416707515,Styled Apartment in City Center near Westerpark,Westerpark,52.39128,4.87557,Entire condo,3,2.0,200.0,2,5.0,POINT (120172.31154470377 489392.90566533257),209.97339421274395,597.605622308085,160.59226522677798,164.57532204156044,1741.3691504170704,158.79836978693186,1496.9662435117564,2314.780458176664,EB,Spaarndammerbuurt/Zeeheldenbuurt,20.0,33.72,91.0
264,1927634,"Houseboat, 3 bedrooms, garden, outdoor kitchen!",Oostelijk Havengebied - Indische Buurt,52.36807,4.93449,Houseboat,4,3.0,482.0,40,4.85,POINT (124166.90910432962 486783.79182533285),63.05394641912272,747.7757363425467,480.9540063812778,455.81212934126427,835.8309206826582,211.70191504071616,338.62475929126595,2915.9198996685686,MA,Oostelijk Havengebied,28.0,4.51,79.0
265,530432021374749727,newly renovated ground floor apartment + terrace,Oostelijk Havengebied - Indische Buurt,52.36794,4.93702,Entire condo,3,2.0,239.0,6,4.5,POINT (124339.12882574712 486768.25429473585),135.5932038229324,731.9330055643698,452.2934441842866,472.26303642920914,884.6571095325937,159.5043639629479,324.16901449721894,3087.748624468288,MA,Oostelijk Havengebied,28.0,4.51,79.0
266,4721855,Luxurious and cosy apartment,Westerpark,52.38825,4.87881,Entire rental unit,4,2.0,165.0,44,4.98,POINT (120390.49514594747 489054.2254179022),111.48240728481372,613.269299657274,138.4391414281611,179.87197168553394,1810.4146866975657,94.4226282645896,1152.9390822019434,1912.7269875914133,EB,Spaarndammerbuurt/Zeeheldenbuurt,20.0,33.72,91.0
267,6089697,Amsterdam Sunny top floor apartment in center,Westerpark,52.38991,4.87708,Private room in rental unit,4,3.0,359.0,56,4.73,POINT (120274.02511207794 489239.75019306445),134.15024068852162,573.1058810874439,183.97834680808083,108.5142877136282,1882.8161034567688,175.77216773985865,1334.602701302921,2131.4431240191825,EB,Spaarndammerbuurt/Zeeheldenbuurt,20.0,33.72,91.0
268,8093694,Centre apartment | GARDEN | Westerpark | CS 5min,Westerpark,52.38738,4.88049,Entire rental unit,4,1.0,292.0,34,4.48,POINT (120504.18477913596 488956.62527672993),112.41563901118042,715.4813232479909,230.43387986767945,30.551740601854565,1661.6110298722351,171.9824575915654,1013.100851190988,1773.2128746715484,EB,Spaarndammerbuurt/Zeeheldenbuurt,20.0,33.72,91.0
269,9996040,Modern Apartment Next To Westerpark,Westerpark,52.38845,4.87881,Entire rental unit,2,1.0,200.0,33,4.88,POINT (120390.65126902511 489076.4780800329),110.59690607276426,618.1551889676304,118.48844003011048,195.51516797920732,1822.886099989464,79.88211556752998,1160.9463014195048,1932.181315962252,EB,Spaarndammerbuurt/Zeeheldenbuurt,20.0,33.72,91.0
270,14819599,"Private room in central, bright & cosy apartment",Westerpark,52.38813,4.87861,Private room in rental unit,2,1.0,76.0,57,4.64,POINT (120376.78637417401 489040.96936226456),127.33105988714168,597.3235793115443,156.35056803601054,181.98922658304187,1814.39227985746,113.485410105015,1161.122595316952,1907.80440949998,EB,Spaarndammerbuurt/Zeeheldenbuurt,20.0,33.72,91.0
271,15213109,Light & spacious apartment near Jordaan/center,Westerpark,52.38724,4.88051,Entire rental unit,4,2.0,250.0,58,4.81,POINT (120505.43739233681 488941.0388941784),128.0338511892194,716.4190602912431,245.86966492132808,19.449826026260915,1651.7312709578052,187.3293741885208,1007.165428965714,1758.7780161998537,EB,Spaarndammerbuurt/Zeeheldenbuurt,20.0,33.72,91.0
272,18514892,Cozy apartment near Westerpark,Westerpark,52.38962,4.87773,Entire rental unit,4,1.0,349.0,37,4.54,POINT (120318.04553788775 489207.1725286757),128.45224430447257,595.189785023881,132.81110546852295,153.42669879368052,1934.9809568084245,123.95013923604184,1280.6837964093995,2081.6765416609205,EB,Spaarndammerbuurt/Zeeheldenbuurt,20.0,33.72,91.0
273,18667438,Spacious house with lovely garden,Westerpark,52.38909,4.87677,Entire rental unit,2,1.0,60.0,13,4.77,POINT (120252.27988110945 489148.66287417914),213.9147619303652,510.390273855375,198.30441599758305,117.44099122841196,1893.4421992076448,188.2921361967679,1316.3705114829315,2063.4515612126866,EB,Spaarndammerbuurt/Zeeheldenbuurt,20.0,33.72,91.0
274,890355,Apartment near city centre + canals,Westerpark,52.38875,4.87835,Entire rental unit,2,1.0,144.0,33,4.7,POINT (120359.57116690843 489110.07687374845),147.26949310781285,596.9618005599965,112.86723945229085,226.808958023366,1867.6050447553928,97.54621769197492,1202.5093663844154,1976.5652801405424,EB,Spaarndammerbuurt/Zeeheldenbuurt,20.0,33.72,91.0
275,1044452,Charming Private Studio Westerpark,Westerpark,52.38912,4.87907,Entire rental unit,2,1.0,150.0,290,4.82,POINT (120408.87351528365 489150.90035938326),123.26681728334393,656.5528425569653,48.89328445238758,246.39535838338583,1851.7507678633888,39.64802690977278,1174.3866502904427,1989.5725258894029,EB,Spaarndammerbuurt/Zeeheldenbuurt,20.0,33.72,91.0
276,21931660,Private suite next Westerpark,Westerpark,52.38951,4.87912,Private room in rental unit,2,2.0,95.0,103,4.48,POINT (120412.58147020347 489194.2691931892),127.2160123917046,675.5242111628224,38.20675180236099,248.83881191619133,1875.246422972709,30.81392117113761,1190.5528611026502,2026.6613947792985,EB,Spaarndammerbuurt/Zeeheldenbuurt,20.0,33.72,91.0
277,22072477,Bright & cosy apartment in the center with balcony,Westerpark,52.38768,4.88021,Entire rental unit,2,1.0,170.0,14,4.79,POINT (120485.3568554054 488990.1375952066),80.39363492576369,698.5361810632068,193.60925909406205,68.80572188223016,1695.933718713372,134.84462720489768,1041.7432909667534,1811.622130531108,EB,Spaarndammerbuurt/Zeeheldenbuurt,20.0,33.72,91.0
278,39401306,Cosy private suite next Westerpark!,Westerpark,52.38941,4.87894,Private room in rental unit,2,2.0,95.0,50,4.7,POINT (120400.25022106625 489183.2287905782),135.8680006167369,659.9170889987289,47.92341447978245,238.4755077183057,1878.203592464954,38.55961237259497,1196.4487556054682,2022.3035005320617,EB,Spaarndammerbuurt/Zeeheldenbuurt,20.0,33.72,91.0
